{
  "type": "FeatureCollection",
  "features": [
    {
      "type": "Feature",
      "properties": {
        "id": 1,
        "name": "Lati",
        "company": "PT Berau Coal",
        "province": "Kalimantan Timur",
        "city": "Berau"
      },
      "geometry": {
        "type": "Point",
        "coordinates": [
          117.563569,
          2.296937
        ]
      }
    },
    {
      "type": "Feature",
      "properties": {
        "id": 2,
        "name": "Binungan",
        "company": "PT Berau Coal",
        "province": "Kalimantan Timur",
        "city": "Berau"
      },
      "geometry": {
        "type": "Point",
        "coordinates": [
          117.455417,
          2.089162
        ]
      }
    },
    {
      "type": "Feature",
      "properties": {
        "id": 3,
        "name": "Sambarata",
        "company": "PT Berau Coal",
        "province": "Kalimantan Timur",
        "city": "Berau"
      },
      "geometry": {
        "type": "Point",
        "coordinates": [
          117.38903,
          2.2818
        ]
      }
    },
    {
      "type": "Feature",
      "properties": {
        "id": 4,
        "name": "Gurimbang",
        "company": "PT Berau Coal",
        "province": "Kalimantan Timur",
        "city": "Berau"
      },
      "geometry": {
        "type": "Point",
        "coordinates": [
          117.572724,
          2.134371
        ]
      }
    },
    {
      "type": "Feature",
      "properties": {
        "id": 5,
        "name": "Sangatta",
        "company": "PT Kaltim Prima Coal",
        "province": "Kalimantan Timur",
        "city": "Kutai Timur"
      },
      "geometry": {
        "type": "Point",
        "coordinates": [
          117.488557,
          0.599251
        ]
      }
    },
    {
      "type": "Feature",
      "properties": {
        "id": 6,
        "name": "Bengalon",
        "company": "PT Kaltim Prima Coal",
        "province": "Kalimantan Timur",
        "city": "Kutai Timur"
      },
      "geometry": {
        "type": "Point",
        "coordinates": [
          117.464246,
          0.833614
        ]
      }
    },
    {
      "type": "Feature",
      "properties": {
        "id": 7,
        "name": "Senakin",
        "company": "PT Arutmin Indonesia",
        "province": "Kalimantan Selatan",
        "city": "Kotabaru"
      },
      "geometry": {
        "type": "Point",
        "coordinates": [
          116.288631,
          -2.796658
        ]
      }
    },
    {
      "type": "Feature",
      "properties": {
        "id": 8,
        "name": "Satui",
        "company": "PT Arutmin Indonesia",
        "province": "Kalimantan Selatan",
        "city": "Tanah Bumbu"
      },
      "geometry": {
        "type": "Point",
        "coordinates": [
          115.288605,
          -3.679438
        ]
      }
    },
    {
      "type": "Feature",
      "properties": {
        "id": 9,
        "name": "Mulia/Jumbang",
        "company": "PT Arutmin Indonesia",
        "province": "Kalimantan Selatan",
        "city": "Tanah Bumbu"
      },
      "geometry": {
        "type": "Point",
        "coordinates": [
          115.37312,
          -3.790327
        ]
      }
    },
    {
      "type": "Feature",
      "properties": {
        "id": 10,
        "name": "Sarongga",
        "company": "PT Arutmin Indonesia",
        "province": "Kalimantan Selatan",
        "city": "Tanah Bumbu"
      },
      "geometry": {
        "type": "Point",
        "coordinates": [
          116.018748,
          -3.253772
        ]
      }
    },
    {
      "type": "Feature",
      "properties": {
        "id": 11,
        "name": "Asam-asam",
        "company": "PT Arutmin Indonesia",
        "province": "Kalimantan Selatan",
        "city": "Tanah Laut"
      },
      "geometry": {
        "type": "Point",
        "coordinates": [
          115.04344,
          -3.94989
        ]
      }
    },
    {
      "type": "Feature",
      "properties": {
        "id": 12,
        "name": "Kintap",
        "company": "PT Arutmin Indonesia",
        "province": "Kalimantan Selatan",
        "city": "Tanah Laut"
      },
      "geometry": {
        "type": "Point",
        "coordinates": [
          115.217864,
          -3.750346
        ]
      }
    },
    {
      "type": "Feature",
      "properties": {
        "id": 13,
        "name": "Tutupan Utara",
        "company": "PT Adaro Indonesia",
        "province": "Kalimantan Selatan",
        "city": "Balangan"
      },
      "geometry": {
        "type": "Point",
        "coordinates": [
          115.568231,
          -2.171642
        ]
      }
    },
    {
      "type": "Feature",
      "properties": {
        "id": 14,
        "name": "Tutupan Selatan",
        "company": "PT Adaro Indonesia",
        "province": "Kalimantan Selatan",
        "city": "Balangan"
      },
      "geometry": {
        "type": "Point",
        "coordinates": [
          115.517596,
          -2.205145
        ]
      }
    },
    {
      "type": "Feature",
      "properties": {
        "id": 15,
        "name": "Paringin Utara",
        "company": "PT Adaro Indonesia",
        "province": "Kalimantan Selatan",
        "city": "Balangan"
      },
      "geometry": {
        "type": "Point",
        "coordinates": [
          115.491708,
          -2.2929
        ]
      }
    },
    {
      "type": "Feature",
      "properties": {
        "id": 16,
        "name": "Wara I",
        "company": "PT Adaro Indonesia",
        "province": "Kalimantan Selatan",
        "city": "Balangan"
      },
      "geometry": {
        "type": "Point",
        "coordinates": [
          115.476479,
          -2.162696
        ]
      }
    },
    {
      "type": "Feature",
      "properties": {
        "id": 17,
        "name": "Wara II",
        "company": "PT Adaro Indonesia",
        "province": "Kalimantan Selatan",
        "city": "Balangan"
      },
      "geometry": {
        "type": "Point",
        "coordinates": [
          115.428509,
          -2.275006
        ]
      }
    },
    {
      "type": "Feature",
      "properties": {
        "id": 18,
        "name": "Batubara Hamarung",
        "company": "PT Semesta Centramas",
        "province": "Kalimantan Selatan",
        "city": "Balangan"
      },
      "geometry": {
        "type": "Point",
        "coordinates": [
          115.583027,
          -2.352217
        ]
      }
    },
    {
      "type": "Feature",
      "properties": {
        "id": 19,
        "name": "Batubara Piyait",
        "company": "PT Paramitha Cipta Sarana",
        "province": "Kalimantan Selatan",
        "city": "Balangan"
      },
      "geometry": {
        "type": "Point",
        "coordinates": [
          115.573617,
          -2.398304
        ]
      }
    },
    {
      "type": "Feature",
      "properties": {
        "id": 20,
        "name": "Batubara Tawahan",
        "company": "PT Laskar Semesta Alam",
        "province": "Kalimantan Selatan",
        "city": "Balangan"
      },
      "geometry": {
        "type": "Point",
        "coordinates": [
          115.625618,
          -2.349375
        ]
      }
    },
    {
      "type": "Feature",
      "properties": {
        "id": 21,
        "name": "Batubara Benhes 3",
        "company": "PT Bumi Kaliman Sejahtera",
        "province": "Kalimantan Timur",
        "city": "Kutai Timur"
      },
      "geometry": {
        "type": "Point",
        "coordinates": [
          116.753186,
          1.13465
        ]
      }
    },
    {
      "type": "Feature",
      "properties": {
        "id": 22,
        "name": "Batubara Long Wehea 1",
        "company": "PT Bumi Murau Coal",
        "province": "Kalimantan Timur",
        "city": "Kutai Timur"
      },
      "geometry": {
        "type": "Point",
        "coordinates": [
          116.756178,
          1.220246
        ]
      }
    },
    {
      "type": "Feature",
      "properties": {
        "id": 23,
        "name": "Batubara Long Wehea 2",
        "company": "PT Birawa Pandu Selaras",
        "province": "Kalimantan Timur",
        "city": "Kutai Timur"
      },
      "geometry": {
        "type": "Point",
        "coordinates": [
          116.77666,
          1.257974
        ]
      }
    },
    {
      "type": "Feature",
      "properties": {
        "id": 24,
        "name": "Batubara Long Wehea 4",
        "company": "PT Khazana Bumi Kalimantan",
        "province": "Kalimantan Timur",
        "city": "Kutai Timur"
      },
      "geometry": {
        "type": "Point",
        "coordinates": [
          116.831405,
          1.151782
        ]
      }
    },
    {
      "type": "Feature",
      "properties": {
        "id": 25,
        "name": "Batubara Long Wehea 3",
        "company": "PT Persada Multi Bara",
        "province": "Kalimantan Timur",
        "city": "Kutai Timur"
      },
      "geometry": {
        "type": "Point",
        "coordinates": [
          116.784001,
          1.171083
        ]
      }
    },
    {
      "type": "Feature",
      "properties": {
        "id": 26,
        "name": "Batubara Marah Kenyah 2",
        "company": "PT Telen Eco Coal",
        "province": "Kalimantan Timur",
        "city": "Kutai Timur"
      },
      "geometry": {
        "type": "Point",
        "coordinates": [
          116.700296,
          1.125332
        ]
      }
    },
    {
      "type": "Feature",
      "properties": {
        "id": 27,
        "name": "Batubara Benhes 2",
        "company": "PT Tri Panuntun Persada",
        "province": "Kalimantan Timur",
        "city": "Kutai Timur"
      },
      "geometry": {
        "type": "Point",
        "coordinates": [
          116.680832,
          1.289525
        ]
      }
    },
    {
      "type": "Feature",
      "properties": {
        "id": 28,
        "name": "Batubara Gunung Kembang",
        "company": "PT Mustika Indah Permai",
        "province": "Kalimantan Timur",
        "city": "Mahakam Ulu"
      },
      "geometry": {
        "type": "Point",
        "coordinates": [
          103.633099,
          -3.711629
        ]
      }
    },
    {
      "type": "Feature",
      "properties": {
        "id": 30,
        "name": "Batubara Melapeh Baru 1",
        "company": "PT Pari Coal",
        "province": "Kalimantan Timur",
        "city": "Mahakam Ulu"
      },
      "geometry": {
        "type": "Point",
        "coordinates": [
          115.06088,
          -0.05772
        ]
      }
    },
    {
      "type": "Feature",
      "properties": {
        "id": 31,
        "name": "Batubara Danum Paro",
        "company": "PT Ratah Coal",
        "province": "Kalimantan Tengah",
        "city": "Murung Raya"
      },
      "geometry": {
        "type": "Point",
        "coordinates": [
          115.070869,
          0.3272
        ]
      }
    },
    {
      "type": "Feature",
      "properties": {
        "id": 32,
        "name": "Batubara Bumbun",
        "company": "PT Juloi Coal",
        "province": "Kalimantan Selatan",
        "city": "Tapin"
      },
      "geometry": {
        "type": "Point",
        "coordinates": [
          115.122998,
          -3.142556
        ]
      }
    },
    {
      "type": "Feature",
      "properties": {
        "id": 35,
        "name": "Batubara Dahlia",
        "company": "PT Sumber Barito Coal",
        "province": "Kalimantan Tengah",
        "city": "Murung Raya"
      },
      "geometry": {
        "type": "Point",
        "coordinates": [
          114.710847,
          0.16375
        ]
      }
    },
    {
      "type": "Feature",
      "properties": {
        "id": 36,
        "name": "Haju Block",
        "company": "PT Lahai Coal",
        "province": "Kalimantan Tengah",
        "city": "Murung Raya"
      },
      "geometry": {
        "type": "Point",
        "coordinates": [
          114.835719,
          -0.314002
        ]
      }
    },
    {
      "type": "Feature",
      "properties": {
        "id": 39,
        "name": "Batubara Muara Ritan 2",
        "company": "PT Fajar Sakti Prima",
        "province": "Kalimantan Timur",
        "city": "Kutai Kartanegara"
      },
      "geometry": {
        "type": "Point",
        "coordinates": [
          116.107206,
          0.534906
        ]
      }
    },
    {
      "type": "Feature",
      "properties": {
        "id": 40,
        "name": "Batubara Muara Ritan 1",
        "company": "PT Bara Tabang",
        "province": "Kalimantan Timur",
        "city": "Kutai Kartanegara"
      },
      "geometry": {
        "type": "Point",
        "coordinates": [
          116.1698,
          0.549093
        ]
      }
    },
    {
      "type": "Feature",
      "properties": {
        "id": 41,
        "name": "Batubara Long Lalang 2",
        "company": "PT Tiwa Abadi",
        "province": "Kalimantan Timur",
        "city": "Kutai Kartanegara"
      },
      "geometry": {
        "type": "Point",
        "coordinates": [
          116.157262,
          0.488912
        ]
      }
    },
    {
      "type": "Feature",
      "properties": {
        "id": 42,
        "name": "Batubara Gunung Sari 2",
        "company": "PT Tanur Jaya",
        "province": "Kalimantan Timur",
        "city": "Kutai Kartanegara"
      },
      "geometry": {
        "type": "Point",
        "coordinates": [
          116.200016,
          0.487386
        ]
      }
    },
    {
      "type": "Feature",
      "properties": {
        "id": 43,
        "name": "Lati",
        "company": "PT Berau Coal",
        "province": "Kalimantan Timur",
        "city": "Berau"
      },
      "geometry": {
        "type": "Point",
        "coordinates": [
          117.563569,
          2.296937
        ]
      }
    },
    {
      "type": "Feature",
      "properties": {
        "id": 44,
        "name": "Binungan",
        "company": "PT Berau Coal",
        "province": "Kalimantan Timur",
        "city": "Berau"
      },
      "geometry": {
        "type": "Point",
        "coordinates": [
          117.455417,
          2.089162
        ]
      }
    },
    {
      "type": "Feature",
      "properties": {
        "id": 45,
        "name": "Sambarata",
        "company": "PT Berau Coal",
        "province": "Kalimantan Timur",
        "city": "Berau"
      },
      "geometry": {
        "type": "Point",
        "coordinates": [
          117.38903,
          2.2818
        ]
      }
    },
    {
      "type": "Feature",
      "properties": {
        "id": 46,
        "name": "Gurimbang",
        "company": "PT Berau Coal",
        "province": "Kalimantan Timur",
        "city": "Berau"
      },
      "geometry": {
        "type": "Point",
        "coordinates": [
          117.572724,
          2.134371
        ]
      }
    },
    {
      "type": "Feature",
      "properties": {
        "id": 47,
        "name": "Lati",
        "company": "PT Berau Coal",
        "province": "Kalimantan Timur",
        "city": "Berau"
      },
      "geometry": {
        "type": "Point",
        "coordinates": [
          117.563569,
          2.296937
        ]
      }
    },
    {
      "type": "Feature",
      "properties": {
        "id": 48,
        "name": "Binungan",
        "company": "PT Berau Coal",
        "province": "Kalimantan Timur",
        "city": "Berau"
      },
      "geometry": {
        "type": "Point",
        "coordinates": [
          117.455417,
          2.089162
        ]
      }
    },
    {
      "type": "Feature",
      "properties": {
        "id": 49,
        "name": "Sambarata",
        "company": "PT Berau Coal",
        "province": "Kalimantan Timur",
        "city": "Berau"
      },
      "geometry": {
        "type": "Point",
        "coordinates": [
          117.38903,
          2.2818
        ]
      }
    },
    {
      "type": "Feature",
      "properties": {
        "id": 50,
        "name": "Gurimbang",
        "company": "PT Berau Coal",
        "province": "Kalimantan Timur",
        "city": "Berau"
      },
      "geometry": {
        "type": "Point",
        "coordinates": [
          117.572724,
          2.134371
        ]
      }
    }
  ]
}