,longitude,latitude,mineral_type,mineral_grade,institution,city,province,object_name,hypotherical_resource,inferred_resource,indicated_resource,measured_resource,total_resource,probable_reserve,proven_reserve,total_reserve,units,year_measured
,95.98966,4.47346,Batubara,Rendah (< 5100),Pemerintah,Aceh Barat,Aceh,Batubara Woyla,0,20.92,0,0,20.92,0,0,0,Juta Ton,2022
,102.59465,-2.62264,Batubara,Rendah (< 5100),Pemerintah,Sarolangun,Jambi,Batubara Sungai Gedang,48.88,2.25,0,0,2.25,0,0,0,Juta Ton,2022
,109.05603,-7.10585,Batubara,Rendah (< 5100),Pemerintah,Tegal,Jawa Tengah,Batubara Bentar 1,0,0.82,0,0,0.82,0,0,0,Juta Ton,2022
,111.64037,-8.19211,Batubara,Rendah (< 5100),Pemerintah,Trenggalek,Jawa Timur,Batubara Watulimo,0,0.08,0,0,0.08,0,0,0,Juta Ton,2022
,111.40379,-2.56168,Batubara,Rendah (< 5100),Pemerintah,Kotawaringin Barat,Kalimantan Tengah,Batubara Pangkalanbun,0,33.52,0,0,33.52,0,0,0,Juta Ton,2022
,117.35399,0.14212,Batubara,Rendah (< 5100),Pemerintah,Kutai Timur,Kalimantan Timur,Batubara Pelakan 1,0.3,7.66,4.12,2.44,14.22,0,0,0,Juta Ton,2022
,101.57452,-0.73467,Batubara,Rendah (< 5100),Pemerintah,Kuantan Singingi,Riau,Batubara Lubuk Jambi,0,21,0,0,21,0,0,0,Juta Ton,2022
,121.13652,-1.9671,Batubara,Rendah (< 5100),Pemerintah,Morowali Utara,Sulawesi Tengah,Batubara Timbawana,0,1.98,0,0,1.98,0,0,0,Juta Ton,2022
,104.10693,-2.50773,Batubara,Rendah (< 5100),Pemerintah,Banyuasin,Sumatera Selatan,Batubara Bentayan,0,92.22,0,0,92.22,0,0,0,Juta Ton,2022
,104.38202,-3.33605,Batubara,Rendah (< 5100),Pemerintah,Muara Enim,Sumatera Selatan,Batubara Lembak,0,0,278,556.92,834.92,0,0,0,Juta Ton,2022
,104.84411,-3.66555,Batubara,Rendah (< 5100),Pemerintah,Ogan Komering Ilir,Sumatera Selatan,Batubara Tanjung Lubuk,143.29,83.5,25.48,13.4,122.38,0,0,0,Juta Ton,2022
,105.08854,-3.68889,Batubara,Rendah (< 5100),Pemerintah,Ogan Komering Ilir,Sumatera Selatan,Batubara Pagardewa,159.9,86.37,41.64,19.79,147.8,0,0,0,Juta Ton,2022
,104.37158,-3.53948,Batubara,Rendah (< 5100),Pemerintah,Ogan Ilir,Sumatera Selatan,Batubara Talang Karangan,0,23.74,0,0,23.74,0,0,0,Juta Ton,2022
,102.61187,-1.58693,Batubara,Rendah (< 5100),Pemerintah,Tebo,Jambi,Batubara Muara Kilis 1,0,73.986,0,0,73.986,0,0,0,Juta Ton,2022
,140.8636,-5.36358,Batubara,Rendah (< 5100),Pemerintah,Boven Digoel,Papua,Batubara Waropko,0.8,0,0,0,0,0,0,0,Juta Ton,2022
,127.47345,-0.57623,Batubara,Rendah (< 5100),Pemerintah,Halmahera Selatan,Maluku Utara,Batubara Halmahera,3.21,0,0,0,0,0,0,0,Juta Ton,2022
,138.65778,-2.02751,Batubara,Rendah (< 5100),Pemerintah,Sarmi,Papua,Batubara Sarmi,0.11,0,0,0,0,0,0,0,Juta Ton,2022
,127.683031,1.186526,Batubara,Rendah (< 5100),Pemerintah,Halmahera Utara,Maluku Utara,Batubara Malifut,1.527,0,0,0,0,0,0,0,Juta Ton,2022
,137.140721,-2.28909,Batubara,Rendah (< 5100),Pemerintah,Mamberamo Raya,Papua,Batubara Danau Nisa,5.01,0,0,0,0,0,0,0,Juta Ton,2022
,135.043244,-4.181386,Batubara,Rendah (< 5100),Pemerintah,Mimika,Papua,Batubara Potaway,1.247,0,0,0,0,0,0,0,Juta Ton,2022
,110.918979,0.816039,Batubara,Rendah (< 5100),Pemerintah,Sintang,Kalimantan Barat,Batubara Sungai Sai,0.08,0,0,0,0,0,0,0,Juta Ton,2022
,135.811001,-4.374303,Batubara,Rendah (< 5100),Pemerintah,Mimika,Papua,Batubara Umuk,0.03,0,0,0,0,0,0,0,Juta Ton,2022
,103.567,-1.839,Batubara,Rendah (< 5100),Swasta,Muaro Jambi,Jambi,Batubara Suka Damai 1,0,0.56,0.67,0.78,2.01,0,2.012,2.012,Juta Ton,2022
,104.294933,-2.59175,Batubara,Rendah (< 5100),Swasta,Banyuasin,Sumatera Selatan,Batubara Teluk Tenggulang,0,160,0,0,160,0,0,0,Juta Ton,2022
,99.209524,1.163095,Batubara,Rendah (< 5100),Swasta,Tapanuli Selatan,Sumatera Utara,Batubara PR Patikuban,0,0,1.83799,5.779706,7.617696,0,0,0,Juta Ton,2022
,102.525371,-2.51328,Batubara,Rendah (< 5100),Swasta,Sarolangun,Jambi,Batubara Lubuk Bedorong,0,0,0,12.129,12.129,0,5.614,5.614,Juta Ton,2022
,103.968625,-2.461179,Batubara,Rendah (< 5100),Swasta,Musi Banyuasin,Sumatera Selatan,Batubara Suka Damai 2,0,18.96,25.68,47.62,92.26,25.68,37.17,62.85,Juta Ton,2022
,103.709656,-2.708206,Batubara,Rendah (< 5100),Swasta,Musi Banyuasin,Sumatera Selatan,Batubara Ulak Teberau,0,116.325053,433.93,23.67,573.925053,28.76,0,28.76,Juta Ton,2022
,117.157404,-0.716943,Batubara,Rendah (< 5100),Swasta,Kutai Kartanegara,Kalimantan Timur,Batubara Jawa 2,0,0,0,0,0,0,0,0,Juta Ton,2022
,115.238626,-1.47725,Batubara,Rendah (< 5100),Swasta,Barito Selatan,Kalimantan Tengah,Batubara Patas II,0,33.26,18.78,15.21,67.25,3.215,5.459,8.674,Juta Ton,2022
,115.234963,-2.064832,Batubara,Rendah (< 5100),Swasta,Barito Timur,Kalimantan Tengah,Batubara Ampar Batu,0,1.282,3.92,18.916,24.118,1.28,18.92,20.2,Juta Ton,2022
,115.112361,-1.966667,Batubara,Rendah (< 5100),Swasta,Barito Timur,Kalimantan Tengah,Batubara Dayu,0,0,21.234,6.984,28.218,6.206,0,6.206,Juta Ton,2022
,116.046742,-3.267558,Batubara,Rendah (< 5100),Swasta,Tanah Bumbu,Kalimantan Selatan,Batubara Sei Buluh,0,0,0,5.74,5.74,0,0,0,Juta Ton,2022
,115.452708,-3.631284,Batubara,Rendah (< 5100),Swasta,Tanah Bumbu,Kalimantan Selatan,Batubara Sei Batulaki,0,0.7941,1.34,1.42,3.5541,0,0,0,Juta Ton,2022
,115.688644,-3.27596,Batubara,Rendah (< 5100),Swasta,Tanah Bumbu,Kalimantan Selatan,Batubara Guntung,0,17.967044,8.166838,3.88897,30.022852,2.046827,1.077277,3.124104,Juta Ton,2022
,115.334719,-3.768746,Batubara,Rendah (< 5100),Swasta,Tanah Laut,Kalimantan Selatan,Batubara Sungai Cuka 4,0,0,0,2.436872,2.436872,1.393271,1.043602,2.436873,Juta Ton,2022
,115.650797,-3.733921,Batubara,Rendah (< 5100),Swasta,Tanah Bumbu,Kalimantan Selatan,Batubara Bunati 1A,0,0,0,0.34,0.34,0,0,0,Juta Ton,2022
,114.0041,-0.152859,Batubara,Rendah (< 5100),Swasta,Murung Raya,Kalimantan Tengah,Batubara Muara Joloi I,0,0,0,0,0,0,0,0,Juta Ton,2022
,115.070411,0.059037,Batubara,Rendah (< 5100),Swasta,Mahakam Ulu,Kalimantan Timur,Batubara Melapeh Baru 4,0,1.156,17.74,0.052778,18.948778,0,0,0,Juta Ton,2022
,117.179643,-0.820479,Batubara,Rendah (< 5100),Swasta,Kutai Kartanegara,Kalimantan Timur,Batubara Muara Jawa Ilir,0,0,0,0.35,0.35,0,0,0,Juta Ton,2022
,116.190082,-2.054267,Batubara,Rendah (< 5100),Swasta,Paser,Kalimantan Timur,Batubara Batu Engau,0,0,0,1.25,1.25,0,0,0,Juta Ton,2022
,114.834513,0.055467,Batubara,Rendah (< 5100),Swasta,Mahakam Ulu,Kalimantan Timur,Batubara Tumbang Tujang 3,0,0,0,0,0,0,0,0,Juta Ton,2022
,117.729296,1.623958,Batubara,Rendah (< 5100),Swasta,Kutai Timur,Kalimantan Timur,Batubara Batu Lepoq,0,13.339054,0,0,13.339054,0,0,0,Juta Ton,2022
,115.452933,-0.090755,Batubara,Rendah (< 5100),Swasta,Kutai Barat,Kalimantan Timur,Batubara Nyuatan,0,42.12,17.55,10.53,70.2,9.54,7.27,16.81,Juta Ton,2022
,116.996746,-1.002706,Batubara,Rendah (< 5100),Swasta,Kutai Kartanegara,Kalimantan Timur,Batubara Margomulyo 1,0,0.081787,0,0,0.081787,0,0.081787,0.081787,Juta Ton,2022
,117.041047,-0.941504,Batubara,Rendah (< 5100),Swasta,Kutai Kartanegara,Kalimantan Timur,Batubara Sungai Seluang 1,0,0.0055,0.347,4.18,4.5325,0,2.48,2.48,Juta Ton,2022
,102.0547,-0.56907,Batubara,Rendah (< 5100),Swasta,Indragiri Hulu,Riau,Batubara Cerinti,0,0,0,0,0,0,0,0,Juta Ton,2022
,117.243802,1.047621,Batubara,Rendah (< 5100),Swasta,Kutai Timur,Kalimantan Timur,Batubara Tebangan Langsat,0,43.8,22.1,16.8,82.7,15.501,34.467,49.968,Juta Ton,2022
,115.559542,-0.337579,Batubara,Rendah (< 5100),Swasta,Kutai Barat,Kalimantan Timur,Batubara Muara Tokong,0,47.865363,32.893909,33.356511,114.115783,33.356511,0,33.356511,Juta Ton,2022
,117.230373,2.446931,Batubara,Rendah (< 5100),Swasta,Berau,Kalimantan Timur,Batubara Segah,0,8.428525,1.316957,0.438985,10.184467,0,0,0,Juta Ton,2022
,114.817464,-0.813704,Batubara,Rendah (< 5100),Swasta,Barito Utara,Kalimantan Tengah,Batubara Nihan Hilir 2,0,0,0,0,0,0,0,0,Juta Ton,2022
,117.209626,0.919615,Batubara,Rendah (< 5100),Swasta,Kutai Timur,Kalimantan Timur,Batubara Tepian Indah,0,0,0,0,0,0,0,0,Juta Ton,2022
,116.410795,-1.501079,Batubara,Rendah (< 5100),Swasta,Penajam Paser Utara,Kalimantan Timur,Batubara Long Kali,0,0.6,5.2,31.9,37.7,0.3,12.9,13.2,Juta Ton,2022
,117.588644,2.743313,Batubara,Rendah (< 5100),Swasta,Bulungan,Kalimantan Utara,Batubara Sajau 1,0,2.390895,1.134931,0.652532,4.178358,0,0,0,Juta Ton,2022
,121.628206,-2.305711,Batubara,Rendah (< 5100),Pemerintah,Morowali,Sulawesi Tengah,Batubara Karaupa,0.52406,0,0,0,0,0,0,0,Juta Ton,2022
,119.327,-2.471,Batubara,Rendah (< 5100),Pemerintah,Mamuju,Sulawesi Barat,Batubara Bonehau 1,8.128397,0,0,0,0,0,0,0,Juta Ton,2022
,102.061463,-0.897627,Batubara,Rendah (< 5100),Pemerintah,Tebo,Jambi,Batubara Pemayungan,1.37125,0,0,0,0,0,0,0,Juta Ton,2022
,115.216339,-0.567382,Batubara,Rendah (< 5100),Swasta,Barito Utara,Kalimantan Tengah,Batubara Karendan 1,0,0,0,0,0,0,0,0,Juta Ton,2022
,114.103771,0.393141,Batubara,Rendah (< 5100),Swasta,Murung Raya,Kalimantan Tengah,Batubara Tumbang Jojang,0,0,0,0,0,0,0,0,Juta Ton,2022
,102.94355,-2.081996,Batubara,Rendah (< 5100),Swasta,Sarolangun,Jambi,Batubara Rangkiling 1,0,0,0,0.194779,0.194779,0,0.194,0.194,Juta Ton,2022
,102.42007,-1.221809,Batubara,Rendah (< 5100),Swasta,Tebo,Jambi,Batubara Semambu,0,5.59,3.13,2.4,11.12,1.45,0.85,2.3,Juta Ton,2022
,102.834778,-1.673158,Batubara,Rendah (< 5100),Swasta,Batang Hari,Jambi,Batubara Maro Sebu Ulu,0,40.69975,20.349875,10.174938,71.224563,0,10.174938,10.174938,Juta Ton,2022
,104.069173,-4.18359,Batubara,Rendah (< 5100),Pemerintah,Ogan Komering Ulu,Sumatera Selatan,Batubara Padangbindu,31.757,0,0,0,0,0,0,0,Juta Ton,2022
,103.797284,-2.340557,Batubara,Rendah (< 5100),Swasta,Musi Banyuasin,Sumatera Selatan,Batubara Sumber Harum,0,25.3,25.7,51.6,102.6,19.283692,0,19.283692,Juta Ton,2022
,104.091339,-4.682958,Batubara,Rendah (< 5100),Swasta,Ogan Komering Ulu Selatan,Sumatera Selatan,Batubara Buay Pematang,0,2.124006,0,0,2.124006,0,0,0,Juta Ton,2022
,104.214456,-3.496677,Batubara,Rendah (< 5100),Swasta,Kota Prabumulih,Sumatera Selatan,Batubara Tanjung Menang 1,0,33.427207,28.970241,14.48512,76.882568,0,0,0,Juta Ton,2022
,114.566946,0.286627,Batubara,Rendah (< 5100),Swasta,Murung Raya,Kalimantan Tengah,Batubara Tumbang Tujang 4,0,0,0,0,0,0,0,0,Juta Ton,2022
,103.602257,-2.546187,Batubara,Rendah (< 5100),Swasta,Musi Banyuasin,Sumatera Selatan,Batubara Sungai Napal,0,233.355,97.102,59.969,390.426,0,0,0,Juta Ton,2022
,103.461892,-3.151677,Batubara,Rendah (< 5100),Swasta,Musi Rawas,Sumatera Selatan,Batubara Mukti Karya,0,76.58556,0,0,76.58556,76.58256,0,76.58256,Juta Ton,2022
,103.542182,-2.961627,Batubara,Rendah (< 5100),Swasta,Musi Banyuasin,Sumatera Selatan,Batubara Sukajaya (Sp.3),0,0,29.44,0,29.44,0,0,0,Juta Ton,2022
,114.566192,-0.041045,Batubara,Rendah (< 5100),Swasta,Murung Raya,Kalimantan Tengah,Batubara Tumbang Tujang 5,0,0,0,0,0,0,0,0,Juta Ton,2022
,117.113337,-0.980228,Batubara,Rendah (< 5100),Swasta,Kutai Kartanegara,Kalimantan Timur,Batubara Teluk Pemedas,0,0,0,0,0,0,0,0,Juta Ton,2022
,102.461308,-3.810077,Batubara,Rendah (< 5100),Swasta,Bengkulu Tengah,Bengkulu,Batubara Karang Nanding,0,0,0,0,0,0,0,0,Juta Ton,2022
,114.682311,0.269702,Batubara,Rendah (< 5100),Swasta,Murung Raya,Kalimantan Tengah,Batubara Tumbang Tujang 2,0,0,0,0,0,0,0,0,Juta Ton,2022
,115.223932,-1.74155,Batubara,Rendah (< 5100),Swasta,Barito Timur,Kalimantan Tengah,Batubara Netampin 1,0,0,2.067,3.101,5.168,0,2.584,2.584,Juta Ton,2022
,115.15124,-1.230288,Batubara,Rendah (< 5100),Swasta,Barito Utara,Kalimantan Tengah,Batubara Tapen Raya,0,0,0,0,0,0,0,0,Juta Ton,2022
,102.31589,-3.496761,Batubara,Rendah (< 5100),Swasta,Bengkulu Utara,Bengkulu,Batubara Taba Padang Rejang,0,0,0,0,0,0,0,0,Juta Ton,2022
,117.268009,-0.275042,Batubara,Rendah (< 5100),Swasta,Kutai Kartanegara,Kalimantan Timur,Batubara Muara Badak Ilir 2,0,0,0,0,0,0,1.201082,1.201082,Juta Ton,2022
,115.099666,0.635219,Batubara,Rendah (< 5100),Swasta,Mahakam Ulu,Kalimantan Timur,Batubara Long Bagun Ulu,0,0,0,0,0,0,0,0,Juta Ton,2022
,114.351089,-0.336357,Batubara,Rendah (< 5100),Swasta,Murung Raya,Kalimantan Tengah,Batubara Laas Baru 3,0,0,0,0,0,0,0,0,Juta Ton,2022
,98.0393,2.37315,Batubara,Rendah (< 5100),Swasta,Aceh Singkil,Aceh,Batubara Gunung Meriah,0,0,0,0,0,0,0,0,Juta Ton,2022
,115.525023,-0.651005,Batubara,Rendah (< 5100),Swasta,Kutai Barat,Kalimantan Timur,Batubara Besik 2,0,0,0,0,0,0,0,0,Juta Ton,2022
,115.408088,-3.771019,Batubara,Rendah (< 5100),Swasta,Tanah Bumbu,Kalimantan Selatan,Batubara Sinarbulan,0,0,0,0,0,1.021462,0,1.021462,Juta Ton,2022
,115.30166,0.618575,Batubara,Rendah (< 5100),Swasta,Mahakam Ulu,Kalimantan Timur,Batubara Batu Majang,0,0,0,0,0,0,0,0,Juta Ton,2022
,114.139632,-0.437514,Batubara,Rendah (< 5100),Swasta,Murung Raya,Kalimantan Tengah,Batubara Olong Liko,0,0,0,0,0,0,0,0,Juta Ton,2022
,115.091783,-1.144266,Batubara,Rendah (< 5100),Swasta,Barito Utara,Kalimantan Tengah,Batubara Baliti,0,41,27,68,136,10.5,0,10.5,Juta Ton,2022
,113.916947,-0.001855,Batubara,Rendah (< 5100),Swasta,Murung Raya,Kalimantan Tengah,Batubara Parahau,0,0,0,0,0,0,0,0,Juta Ton,2022
,103.810558,-2.666583,Batubara,Rendah (< 5100),Swasta,Musi Banyuasin,Sumatera Selatan,Batubara Talang Leban,0,0,0,0,0,0,0,0,Juta Ton,2022
,115.1601,-3.74432,Batubara,Rendah (< 5100),Swasta,Tanah Laut,Kalimantan Selatan,Batubara Riam Adungan 2,0,1.254914,1.226394,1.197873,3.679181,0.566,0.352,0.918,Juta Ton,2022
,116.24669,-2.998339,Batubara,Rendah (< 5100),Swasta,Kotabaru,Kalimantan Selatan,Batubara Sungai Pinang 2,0,6.411539,5.475308,4.654012,16.540859,3.490461,2.995032,6.485493,Juta Ton,2022
,114.048705,-0.456924,Batubara,Rendah (< 5100),Swasta,Murung Raya,Kalimantan Tengah,Batubara Teluk Jolo,0,0,0,0,0,0,0,0,Juta Ton,2022
,115.297923,0.541954,Batubara,Rendah (< 5100),Pemerintah,Mahakam Ulu,Kalimantan Timur,Batubara Long Bagun 1,3.508,0,0,0,0,0,0,0,Juta Ton,2022
,114.806658,-0.348402,Batubara,Rendah (< 5100),Swasta,Murung Raya,Kalimantan Tengah,Batubara Tawai Haui,0,0,0,0,0,0,0,0,Juta Ton,2022
,117.210251,-0.749978,Batubara,Rendah (< 5100),Swasta,Kutai Kartanegara,Kalimantan Timur,Batubara Teluk Dalam 5,0,0.15,0.14,0,0.29,0,0,0,Juta Ton,2022
,116.269085,0.459706,Batubara,Rendah (< 5100),Swasta,Kutai Timur,Kalimantan Timur,Batubara Gunung Sari 3,0,0,0,0,0,0,0,0,Juta Ton,2022
,115.543748,-0.163181,Batubara,Rendah (< 5100),Swasta,Kutai Barat,Kalimantan Timur,Batubara Linggang Melapeh 2,0,19.49,21.7,17.88,59.07,24.41,21.97,46.38,Juta Ton,2022
,117.810483,1.740726,Batubara,Rendah (< 5100),Swasta,Berau,Kalimantan Timur,Batubara Tubaan 1,0,0.69,0,0,0.69,0,0,0,Juta Ton,2022
,117.373386,1.023313,Batubara,Rendah (< 5100),Swasta,Kutai Timur,Kalimantan Timur,Batubara Tepian Langsat,0,23.61,5.06,1.26,29.93,0,0,0,Juta Ton,2022
,115.945432,-0.216254,Batubara,Rendah (< 5100),Swasta,Kutai Barat,Kalimantan Timur,Batubara Abit 2,0,0.141,0.129,0.118,0.388,2.973,2.513,5.486,Juta Ton,2022
,103.716084,-2.320124,Batubara,Rendah (< 5100),Swasta,Musi Banyuasin,Sumatera Selatan,Batubara Sumber Sari 1,0,0,0,0,0,0,0,0,Juta Ton,2022
,114.510308,-0.136554,Batubara,Rendah (< 5100),Swasta,Murung Raya,Kalimantan Tengah,Batubara Olong Balo 1,0,0,0,0,0,0,0,0,Juta Ton,2022
,117.464246,0.833614,Batubara,Rendah (< 5100),Swasta,Kutai Timur,Kalimantan Timur,Batubara Bengalon,0,0,0,0,0,0,0,0,Juta Ton,2022
,116.064014,0.188282,Batubara,Rendah (< 5100),Swasta,Kutai Kartanegara,Kalimantan Timur,Batubara Pulau Pinang 4,0,0,0,0,0,0,0,0,Juta Ton,2022
,103.753905,-2.310344,Batubara,Rendah (< 5100),Swasta,Musi Banyuasin,Sumatera Selatan,Batubara Sumber Sari 2,0,0,0,0,0,0,0,0,Juta Ton,2022
,115.523554,0.525371,Batubara,Rendah (< 5100),Swasta,Mahakam Ulu,Kalimantan Timur,Batubara Long Merah 2,0,8.35,0,0,8.35,0,0,0,Juta Ton,2022
,115.979255,0.068505,Batubara,Rendah (< 5100),Swasta,Kutai Barat,Kalimantan Timur,Batubara Mook Mannar,0,351,169.3,589.72,1110.02,110.85,27.71,138.56,Juta Ton,2022
,117.986165,2.321964,Batubara,Rendah (< 5100),Swasta,Berau,Kalimantan Timur,Batubara Tanjung Batu 2,0,2.61,9.907,16.263,28.78,0,12.79,12.79,Juta Ton,2022
,116.245544,-3.808703,Batubara,Rendah (< 5100),Swasta,Kotabaru,Kalimantan Selatan,Batubara Tanjung Serudung,0,0,0,0,0,0,0,0,Juta Ton,2022
,116.032355,0.35212,Batubara,Rendah (< 5100),Swasta,Kutai Kartanegara,Kalimantan Timur,Batubara Muara Ritan 3,0,26.42,0,0,26.42,0,0,0,Juta Ton,2022
,114.20061,0.053876,Batubara,Rendah (< 5100),Swasta,Murung Raya,Kalimantan Tengah,Batubara Tumbang Olong Ii,0,0,0,0,0,0,0,0,Juta Ton,2022
,115.990522,0.358318,Batubara,Rendah (< 5100),Swasta,Kutai Kartanegara,Kalimantan Timur,Batubara Muara Ritan 4,0,29.78,0,0.1,29.88,0,0,0,Juta Ton,2022
,115.241716,0.587711,Batubara,Rendah (< 5100),Swasta,Mahakam Ulu,Kalimantan Timur,Batubara Batoq Kelo,0,7.9,0,0,7.9,0,0,0,Juta Ton,2022
,115.862268,-0.361947,Batubara,Rendah (< 5100),Swasta,Kutai Barat,Kalimantan Timur,Batubara Muara Beloan,0,95.76,64.87,40,200.63,0,15.41,15.41,Juta Ton,2022
,117.332443,3.320006,Batubara,Rendah (< 5100),Swasta,Bulungan,Kalimantan Utara,Batubara Sekatak,0,21.32,0,0,21.32,0,0,0,Juta Ton,2022
,120.166815,-5.074049,Batubara,Rendah (< 5100),Pemerintah,Bone,Sulawesi Selatan,Batubara Bone,3.508,0,0,0,0,0,0,0,Juta Ton,2022
,121.682761,-3.795126,Batubara,Rendah (< 5100),Pemerintah,Kolaka Timur,Sulawesi Tenggara,Batubara Undolo,0.636,0,0,0,0,0,0,0,Juta Ton,2022
,101.688702,-3.192832,Batubara,Rendah (< 5100),Swasta,Bengkulu Utara,Bengkulu,Batubara Karya Jaya,0,0,9.964,3.985,13.949,0,0,0,Juta Ton,2022
,101.771385,-1.400194,Batubara,Rendah (< 5100),Swasta,Bungo,Jambi,Batubara Talang,0,0,3.18,0,3.18,0,0,0,Juta Ton,2022
,101.852841,-3.223115,Batubara,Rendah (< 5100),Swasta,Bengkulu Utara,Bengkulu,Batubara Talang Baru 1,0,0,9.964,3.985,13.949,0,0,0,Juta Ton,2022
,116.828215,-0.159982,Batubara,Rendah (< 5100),Swasta,Kutai Kartanegara,Kalimantan Timur,Batubara Sabintulung 2,0,0,0,0,0,0,0,0,Juta Ton,2022
,101.981949,-3.359693,Batubara,Rendah (< 5100),Swasta,Bengkulu Utara,Bengkulu,Batubara Air Menganyau 2,0,1.5,0,0,1.5,0,0,0,Juta Ton,2022
,101.991992,-3.393229,Batubara,Rendah (< 5100),Swasta,Bengkulu Utara,Bengkulu,Batubara Samban Jaya,0,2,0,0,2,0,0,0,Juta Ton,2022
,102.025493,-3.395385,Batubara,Rendah (< 5100),Swasta,Bengkulu Utara,Bengkulu,Batubara Durian Amparan,0,2,0,0,2,0,0,0,Juta Ton,2022
,102.03534,-0.686002,Batubara,Rendah (< 5100),Swasta,Indragiri Hulu,Riau,Batubara Semelinang Tebing 3,0,4.865,0,0,4.865,4.865,0,4.865,Juta Ton,2022
,102.178082,-0.742448,Batubara,Rendah (< 5100),Swasta,Indragiri Hulu,Riau,Batubara Kepayang Sari,0,0,0,14.064,14.064,0,0,0,Juta Ton,2022
,117.113675,2.329537,Batubara,Rendah (< 5100),Swasta,Berau,Kalimantan Timur,Batubara Gunung Sari 1,0,0,0,0,0,0,0,0,Juta Ton,2022
,101.838103,-3.198505,Batubara,Rendah (< 5100),Swasta,Bengkulu Utara,Bengkulu,Batubara Bama,0,6.5,5.7,6.2,18.4,0,0,0,Juta Ton,2022
,101.981806,-3.32831,Batubara,Rendah (< 5100),Swasta,Bengkulu Utara,Bengkulu,Batubara Air Menganyau,0,0,0,0,0,2.15,8.29,10.44,Juta Ton,2022
,103.193373,-2.273154,Batubara,Rendah (< 5100),Swasta,Sarolangun,Jambi,Batubara Sungai Butang,0,0,0,0,0,19.987,0,19.987,Juta Ton,2022
,102.736816,-1.410432,Batubara,Rendah (< 5100),Swasta,Tebo,Jambi,Batubara Lubuk Mandarasah,0,0,0.41,0.57,0.98,0,0,0,Juta Ton,2022
,102.875921,-2.202067,Batubara,Rendah (< 5100),Swasta,Sarolangun,Jambi,Batubara Lubuk Napal 2,0,0.395,0.775,1.205,2.375,0.42,0.346,0.766,Juta Ton,2022
,103.060235,-2.48129,Batubara,Rendah (< 5100),Swasta,Musi Rawas Utara,Sumatera Selatan,Batubara Brayan,0,118.94,0,160.5,279.44,0,0,0,Juta Ton,2022
,103.14586,-1.35684,Batubara,Rendah (< 5100),Swasta,Tanjung Jabung Barat,Jambi,Batubara Muarapapalik,0,48.88,0,0,48.88,0,0,0,Juta Ton,2022
,102.615526,-1.408067,Batubara,Rendah (< 5100),Swasta,Tebo,Jambi,Batubara Muara Kilis 2,0,0,0,0,0,0,0,0,Juta Ton,2022
,103.348966,-1.852727,Batubara,Rendah (< 5100),Swasta,Batang Hari,Jambi,Batubara Pompa Air,0,0,0.84,1.59,2.43,0,0,0,Juta Ton,2022
,103.492626,-2.095697,Batubara,Rendah (< 5100),Swasta,Muaro Jambi,Jambi,Batubara Adipura Kencana,0,15.786,12.193,33.454,61.433,0,10.147,10.147,Juta Ton,2022
,103.524304,-3.74254,Batubara,Rendah (< 5100),Swasta,Lahat,Sumatera Selatan,Batubara Sari Bunga Mas,0,1.236,1.11,0.855,3.201,0.557,0.225,0.782,Juta Ton,2022
,102.946988,-2.283964,Batubara,Rendah (< 5100),Swasta,Sarolangun,Jambi,Batubara Seko Besar,0,0,0,0,0,0,0,0,Juta Ton,2022
,103.823036,-1.762713,Batubara,Rendah (< 5100),Swasta,Muaro Jambi,Jambi,Batubara Petaling Jaya 1,0,64.161,72.12,124.17,260.451,0,0,0,Juta Ton,2022
,103.904417,-3.452194,Batubara,Rendah (< 5100),Swasta,Muara Enim,Sumatera Selatan,Batubara Megang Luar,0,0,1.98,34.56,36.54,0,0,0,Juta Ton,2022
,104.025449,-3.446558,Batubara,Rendah (< 5100),Swasta,Muara Enim,Sumatera Selatan,Batubara Muara Niru,0,0,17.99,23.59,41.58,0,0,0,Juta Ton,2022
,104.111368,-3.52107,Batubara,Rendah (< 5100),Swasta,Muara Enim,Sumatera Selatan,Batubara Tanjung Raman,0,23.55,13.58,4.73,41.86,0,0,0,Juta Ton,2022
,104.396872,-4.202529,Batubara,Rendah (< 5100),Swasta,Ogan Komering Ulu Timur,Sumatera Selatan,Batubara Muncak  Kabau,0,12.8,9.7,3.5,26,1.62,11.58,13.2,Juta Ton,2022
,102.904517,-1.978952,Batubara,Rendah (< 5100),Swasta,Batang Hari,Jambi,Batubara Jelutih 5,0,0,0,0,0,15.381,13.467,28.848,Juta Ton,2022
,115.999025,-3.248451,Batubara,Rendah (< 5100),Swasta,Tanah Bumbu,Kalimantan Selatan,Batubara Batu Ampar,0,0,0,0,0,0,0,0,Juta Ton,2022
,114.566137,-0.116337,Batubara,Rendah (< 5100),Swasta,Murung Raya,Kalimantan Tengah,Batubara Olong Balo 2,0,0,6.93,0,6.93,0,0,0,Juta Ton,2022
,115.016573,-1.197133,Batubara,Rendah (< 5100),Swasta,Barito Utara,Kalimantan Tengah,Batubara Rarawa,0,0,19,17.8,36.8,0,0,0,Juta Ton,2022
,115.26292,-2.159699,Batubara,Rendah (< 5100),Swasta,Barito Timur,Kalimantan Tengah,Batubara Bamban,0,0,0,6.48,6.48,0,0,0,Juta Ton,2022
,115.460564,0.591518,Batubara,Rendah (< 5100),Swasta,Mahakam Ulu,Kalimantan Timur,Batubara Mamahak Ilir,0,0.578,1.622,3.71,5.91,0,0,0,Juta Ton,2022
,115.504162,-0.042785,Batubara,Rendah (< 5100),Swasta,Kutai Barat,Kalimantan Timur,Batubara Kalian Dalam,0,0.207,1.22,1.12,2.547,0,0,0,Juta Ton,2022
,115.505373,0.036433,Batubara,Rendah (< 5100),Swasta,Kutai Barat,Kalimantan Timur,Batubara Purworejo,0,0,0,6.496374,6.496374,0,0,0,Juta Ton,2022
,115.650797,-3.733921,Batubara,Rendah (< 5100),Swasta,Tanah Bumbu,Kalimantan Selatan,Batubara Bunati 1B,0,0,0,0.34,0.34,0,0,0,Juta Ton,2022
,115.683637,-0.589597,Batubara,Rendah (< 5100),Swasta,Kutai Barat,Kalimantan Timur,Batubara Muara Begai,0,6.213,4.727,3.606,14.546,1.581,0,1.581,Juta Ton,2022
,115.986325,0.237744,Batubara,Rendah (< 5100),Swasta,Kutai Kartanegara,Kalimantan Timur,Batubara Long Beleh Haloq,0,61.325,35.084,30.696,127.105,0,21.458,21.458,Juta Ton,2022
,115.992076,0.40911,Batubara,Rendah (< 5100),Swasta,Kutai Kartanegara,Kalimantan Timur,Batubara Muara Ritan 5,0,82.062,59.085,29.542,170.689,0,0,0,Juta Ton,2022
,114.939497,-1.382386,Batubara,Rendah (< 5100),Swasta,Barito Selatan,Kalimantan Tengah,Batubara Panarukan,0,0,0,0,0,25.06,17.9,42.96,Juta Ton,2022
,116.327614,-2.773016,Batubara,Rendah (< 5100),Swasta,Kotabaru,Kalimantan Selatan,Batubara Sulangkit,0,4.903215,3.909331,2.801,11.613546,4.64,3.4641,8.1041,Juta Ton,2022
,116.381635,0.517224,Batubara,Rendah (< 5100),Swasta,Kutai Timur,Kalimantan Timur,Batubara Senyiur 3,0,26.32,1.788,0.25,28.358,0,0,0,Juta Ton,2022
,116.421715,0.331891,Batubara,Rendah (< 5100),Swasta,Kutai Timur,Kalimantan Timur,Batubara Kembang Janggut,0,19.316,19.55,15.67,54.536,0,0,0,Juta Ton,2022
,115.628351,-0.761466,Batubara,Rendah (< 5100),Swasta,Kutai Barat,Kalimantan Timur,Batubara Bermai,0,0,0,0,0,0,0,0,Juta Ton,2022
,116.638513,-1.265145,Batubara,Rendah (< 5100),Swasta,Penajam Paser Utara,Kalimantan Timur,Batubara Bulu Minung 1,0,0.234,2.063,0,2.297,0,1.201,1.201,Juta Ton,2022
,116.666751,-1.235741,Batubara,Rendah (< 5100),Swasta,Penajam Paser Utara,Kalimantan Timur,Batubara Bulu Minung 2,0,3.504,3.218,2.95,9.672,2.243,1.86,4.103,Juta Ton,2022
,116.67691,-1.287307,Batubara,Rendah (< 5100),Swasta,Penajam Paser Utara,Kalimantan Timur,Batubara Lawe Lawe,0,12.29,4.98,6.48,23.75,0,0,0,Juta Ton,2022
,116.865726,-0.091036,Batubara,Rendah (< 5100),Swasta,Kutai Kartanegara,Kalimantan Timur,Batubara Sido Mukti 2,0,1.208,0.47,0.017,1.695,0,0,0,Juta Ton,2022
,117.056239,-0.929593,Batubara,Rendah (< 5100),Swasta,Kutai Kartanegara,Kalimantan Timur,Batubara Bukit Merdeka 2,0,13.744736,9.272902,4.239,27.256638,0.606181,0.14,0.746181,Juta Ton,2022
,117.078067,-0.62186,Batubara,Rendah (< 5100),Swasta,Kutai Kartanegara,Kalimantan Timur,Batubara Purwajaya 2,0,0,0,0.12,0.12,0,0,0,Juta Ton,2022
,117.207792,-0.716756,Batubara,Rendah (< 5100),Swasta,Kutai Kartanegara,Kalimantan Timur,Batubara Jawa 4,0,0.863529,0.755588,0.647647,2.266764,0.539705,0.431764,0.971469,Juta Ton,2022
,117.271449,-0.243683,Batubara,Rendah (< 5100),Swasta,Kutai Kartanegara,Kalimantan Timur,Batubara Perangat Baru,0,0.586937,0.649375,0.600117,1.836429,0,1.480865,1.480865,Juta Ton,2022
,117.285451,-0.607398,Batubara,Rendah (< 5100),Swasta,Kutai Kartanegara,Kalimantan Timur,Batubara Sanga Sanga Muara,0,0.205,0.174,0.156,0.535,0.156,0,0.156,Juta Ton,2022
,117.303308,-0.437603,Batubara,Rendah (< 5100),Swasta,Kutai Kartanegara,Kalimantan Timur,Batubara Kutai Lama 1,0,0.114,0.114,0.878,1.106,0.337,0.095,0.432,Juta Ton,2022
,117.578525,0.988434,Batubara,Rendah (< 5100),Swasta,Kutai Timur,Kalimantan Timur,Batubara Keraitan,0,8.157,4.276,2.22,14.653,0,0,0,Juta Ton,2022
,118.386801,1.096576,Batubara,Rendah (< 5100),Swasta,Kutai Timur,Kalimantan Timur,Batubara Sandaran,0,0,49.229,43.74,92.969,0,0,0,Juta Ton,2022
,101.509515,-2.071081,Batubara,Rendah (< 5100),Pemerintah,Kerinci,Jambi,Batubara Batang Merangin,0.07,0,0,0,0,0,0,0,Juta Ton,2022
,103.166452,-1.562302,Batubara,Rendah (< 5100),Pemerintah,Batang Hari,Jambi,Batubara Sungai Rengas,1.484,0,0,0,0,0,0,0,Juta Ton,2022
,116.794087,1.082127,Batubara,Rendah (< 5100),Swasta,Kutai Timur,Kalimantan Timur,Batubara Dabeq 2,0,797,2885,3480,7162,0,0,0,Juta Ton,2022
,116.258759,-2.577845,Batubara,Rendah (< 5100),Swasta,Kotabaru,Kalimantan Selatan,Batubara Sampanahan,0,23.539,24.728,69.084,117.351,10.576,13.387,23.963,Juta Ton,2022
,115.73997,0.077296,Batubara,Rendah (< 5100),Swasta,Kutai Barat,Kalimantan Timur,Batubara Batuq,0,0,0,0,0,0,0,0,Juta Ton,2022
,115.200593,-2.072692,Batubara,Rendah (< 5100),Swasta,Barito Timur,Kalimantan Tengah,Batubara Haruyan,0,7.210982,5.882315,4.96563,18.058927,2.52984,1.232519,3.762359,Juta Ton,2022
,115.654479,-2.338292,Batubara,Rendah (< 5100),Swasta,Balangan,Kalimantan Selatan,Batubara Mantuyan 2,0,24.173976,0.29,12.75799,37.221966,0.29,7.0766,7.3666,Juta Ton,2022
,115.06487,-1.966976,Batubara,Rendah (< 5100),Swasta,Barito Timur,Kalimantan Tengah,Batubara Ipumea 2,0,14.92,10.83,0,25.75,10.88,0,10.88,Juta Ton,2022
,117.229752,-0.428428,Batubara,Rendah (< 5100),Swasta,Kota Samarinda,Kalimantan Timur,Batubara Tanah Merah 1,0,0,0,0,0,1.216312,0.983675,2.199987,Juta Ton,2022
,97.2156,4.856654,Batubara,Rendah (< 5100),Pemerintah,Aceh Timur,Aceh,Batubara Indra Makmur,0.037,0,0,0,0,0,0,0,Juta Ton,2022
,97.910788,4.497375,Batubara,Rendah (< 5100),Pemerintah,Aceh Timur,Aceh,Batubara Birem Bayeun,1.118,0,0,0,0,0,0,0,Juta Ton,2022
,115.936054,0.017915,Batubara,Rendah (< 5100),Swasta,Kutai Kartanegara,Kalimantan Timur,Batubara Geleo Baru 2,0,48.36,56.51,29.41,134.28,46.32,39.38,85.7,Juta Ton,2022
,117.31067,-0.452666,Batubara,Rendah (< 5100),Swasta,Kutai Kartanegara,Kalimantan Timur,Batubara Kutai Lama,0,2.558,1.665,0.836,5.059,0,0.83,0.83,Juta Ton,2022
,116.494459,-0.532795,Batubara,Rendah (< 5100),Swasta,Kutai Kartanegara,Kalimantan Timur,Batubara Muara Muntai,0,27.77,12.002,6.161,45.933,2.78,2.502,5.282,Juta Ton,2022
,115.297578,-3.789137,Batubara,Rendah (< 5100),Swasta,Tanah Laut,Kalimantan Selatan,Batubara Sungai Cuka 3,0,4.258,9.58,29.785,43.623,30.256,1.199,31.455,Juta Ton,2022
,113.300901,-1.456016,Batubara,Rendah (< 5100),Swasta,Katingan,Kalimantan Tengah,Batubara Katingan Tengah,0,16,24.2,25.7,65.9,16.6,22.1,38.7,Juta Ton,2022
,115.812229,-0.499204,Batubara,Rendah (< 5100),Swasta,Kutai Barat,Kalimantan Timur,Batubara Dingin,0,27.086,17.623,16.14,60.849,2.119,0,2.119,Juta Ton,2022
,119.869379,-3.485776,Batubara,Rendah (< 5100),Pemerintah,Enrekang,Sulawesi Selatan,Batubara Baraka,0.648,0,0,0,0,0,0,0,Juta Ton,2022
,115.120343,-1.191924,Batubara,Rendah (< 5100),Swasta,Barito Utara,Kalimantan Tengah,Batubara Payang Ara,0,2.73,1.82,0.91,5.46,1.82,0.9,2.72,Juta Ton,2022
,116.72051,0.904313,Batubara,Rendah (< 5100),Swasta,Kutai Timur,Kalimantan Timur,Batubara Long Melah,0,887.53,557.19,397.99,1842.71,397.99,358.19,756.18,Juta Ton,2022
,111.889562,-2.503889,Batubara,Rendah (< 5100),Swasta,Kotawaringin Barat,Kalimantan Tengah,Batubara Pangkalan Banteng,0,306.33,235.64,104.29,646.26,0,59.25,59.25,Juta Ton,2022
,115.90696,0.136646,Batubara,Rendah (< 5100),Swasta,Kutai Barat,Kalimantan Timur,Batubara Muara Batuq 5,0,0,0,40.64,40.64,0,7.76,7.76,Juta Ton,2022
,114.803517,-1.054287,Batubara,Rendah (< 5100),Swasta,Barito Utara,Kalimantan Tengah,Batubara Bintang Ninggi,0,0,0,3.77,3.77,1.99,0,1.99,Juta Ton,2022
,115.372132,-1.823024,Batubara,Rendah (< 5100),Swasta,Tabalong,Kalimantan Selatan,Batubara Panaan,0,8.89,19.36,23.36,51.61,6.18,4.8,10.98,Juta Ton,2022
,115.479961,-0.317369,Batubara,Rendah (< 5100),Swasta,Kutai Barat,Kalimantan Timur,Batubara Sembuan 2,0,21.69,13.8,9.72,45.21,9.048,8.14,17.188,Juta Ton,2022
,112.565459,-1.969331,Batubara,Rendah (< 5100),Swasta,Kotawaringin Timur,Kalimantan Tengah,Batubara Bawan,0,0,0,6.87,6.87,6.87,0,6.87,Juta Ton,2022
,117.640761,1.30979,Batubara,Rendah (< 5100),Swasta,Kutai Timur,Kalimantan Timur,Batubara Karangan Seberang,0,7.42,1.07,6.73,15.22,6.41,6.1,12.51,Juta Ton,2022
,116.182048,-1.747996,Batubara,Rendah (< 5100),Swasta,Paser,Kalimantan Timur,Batubara Pasir Mayang 3,0,0.33,0.12,1.06,1.51,0.21,0.81,1.02,Juta Ton,2022
,117.82471,3.5104,Batubara,Rendah (< 5100),Swasta,Bulungan,Kalimantan Utara,Batubara Pulau Bunyu,0,0.017,9.546,22.872,32.435,4.062,4.67,8.732,Juta Ton,2022
,103.08043,-1.92752,Batubara,Rendah (< 5100),Swasta,Batang Hari,Jambi,Batubara Terentang Baru,0,148.94,121.96,160.75,431.65,158.91,111.39,270.3,Juta Ton,2022
,115.2757,-2.86511,Batubara,Rendah (< 5100),Swasta,Hulu Sungai Selatan,Kalimantan Selatan,Batubara Malutu,0,29.844831,21.028201,17.855756,68.728788,1.533604,4.368,5.901604,Juta Ton,2022
,117.68223,0.777278,Batubara,Rendah (< 5100),Swasta,Kutai Timur,Kalimantan Timur,Batubara Beruang,0,0.83,7.86,0.59,9.28,0.36,0,0.36,Juta Ton,2022
,115.87585,-1.94227,Batubara,Rendah (< 5100),Swasta,Paser,Kalimantan Timur,Batubara Legai,0,368,825,285.9,1478.9,265.2,131.7,396.9,Juta Ton,2022
,104.12973,-2.41983,Batubara,Rendah (< 5100),Swasta,Banyuasin,Sumatera Selatan,Batubara Keluang 1,0,9.91,22.6,30.69,63.2,9.5,34.76,44.26,Juta Ton,2022
,103.10833,-2.50121,Batubara,Rendah (< 5100),Swasta,Musi Rawas Utara,Sumatera Selatan,Batubara Beringin Makmur II 2,0,19.51,64.34,246.04,329.89,71.12,236.66,307.78,Juta Ton,2022
,103.90771,-2.519973,Batubara,Rendah (< 5100),Swasta,Musi Banyuasin,Sumatera Selatan,Batubara Strada,0,0,15.9,0,15.9,0,0,0,Juta Ton,2022
,103.97845,-3.33306,Batubara,Rendah (< 5100),Swasta,Penukal Abab Lematang Ilir,Sumatera Selatan,Batubara Kertadewa,0,713,1070,550,2333,973,332.998,1305.998,Juta Ton,2022
,117.366412,2.061775,Batubara,Rendah (< 5100),Swasta,Berau,Kalimantan Timur,Batubara Sungai Mambung,0,0.58,1.115,1.275,2.97,0.45,0.932,1.382,Juta Ton,2022
,117.768466,2.277654,Batubara,Rendah (< 5100),Swasta,Berau,Kalimantan Timur,Batubara Batu - Batu,0,11.581,12.023,31.769,55.373,10.754,19.995,30.749,Juta Ton,2022
,117.643932,2.101499,Batubara,Rendah (< 5100),Swasta,Berau,Kalimantan Timur,Batubara Sukan Tengah,0,0.553,1.754,9.697,12.004,0,1.871,1.871,Juta Ton,2022
,103.362,-1.946,Batubara,Rendah (< 5100),Swasta,Batang Hari,Jambi,Batubara Sungkai,0,0,1.85,3.06,4.91,0.22,2.17,2.39,Juta Ton,2022
,104.266876,-2.615646,Batubara,Rendah (< 5100),Swasta,Banyuasin,Sumatera Selatan,Batubara Tenggulang Baru,0,38.2,66,93.4,197.6,3.5,31.1,34.6,Juta Ton,2022
,104.300838,-2.461089,Batubara,Rendah (< 5100),Swasta,Banyuasin,Sumatera Selatan,Batubara Mekar Sari,0,130.43,120.68,97.05,348.16,65.25,162.69,227.94,Juta Ton,2022
,96.218911,4.248202,Batubara,Rendah (< 5100),Swasta,Aceh Barat,Aceh,Batubara Reudeup,0,144.413,148.843,86.489,379.745,82.001,71.879,153.88,Juta Ton,2022
,96.280832,4.230774,Batubara,Rendah (< 5100),Swasta,Nagan Raya,Aceh,Batubara Sumber Batu,0,8.4,15.7,31.263,55.363,12.38,22.683,35.063,Juta Ton,2022
,102.005274,-0.58779,Batubara,Rendah (< 5100),Swasta,Indragiri Hulu,Riau,Batubara Semelinang Tebing/Laut,0,61,362,211,634,127.5,167.3,294.8,Juta Ton,2022
,101.814525,-0.55556,Batubara,Rendah (< 5100),Swasta,Kuantan Singingi,Riau,Batubara Sikakak,0,7.98,37.39,19.43,64.8,39.8,0,39.8,Juta Ton,2022
,102.770261,-1.539177,Batubara,Rendah (< 5100),Swasta,Tebo,Jambi,Batubara Tebo Ilir,0,0,1.078,0.708,1.786,0,0,0,Juta Ton,2022
,102.585579,-1.411449,Batubara,Rendah (< 5100),Swasta,Tebo,Jambi,Batubara Mengupeh 1,0,31.833,29.987,83.427,145.247,4.019,40.186,44.205,Juta Ton,2022
,102.888472,-2.040454,Batubara,Rendah (< 5100),Swasta,Sarolangun,Jambi,Batubara Pemusiran,0,4.751448,9.964597,33.773927,48.489972,28.033381,0,28.033381,Juta Ton,2022
,103.478554,-1.811693,Batubara,Rendah (< 5100),Swasta,Muaro Jambi,Jambi,Batubara Tanjung Pauh,0,0,9.621,5.657,15.278,2.698,1.48,4.178,Juta Ton,2022
,102.882333,-1.745567,Batubara,Rendah (< 5100),Swasta,Batang Hari,Jambi,Batubara Sungai Ruan Dua,0,0,0,2.99,2.99,0,2.27,2.27,Juta Ton,2022
,102.02189,-3.393684,Batubara,Rendah (< 5100),Swasta,Bengkulu Utara,Bengkulu,"Batubara East Blok, West Pit",0,24.82,18.202,9.736,52.758,16,7.919,23.919,Juta Ton,2022
,103.908266,-3.994381,Batubara,Rendah (< 5100),Swasta,Ogan Komering Ulu,Sumatera Selatan,Batubara Tanjung Sari,0,23,43.4,31.6,98,7.427,0.419,7.846,Juta Ton,2022
,104.106795,-4.24027,Batubara,Rendah (< 5100),Swasta,Ogan Komering Ulu,Sumatera Selatan,Batubara Kungkilan 2,0,0,0,16.443062,16.443062,0,0,0,Juta Ton,2022
,104.125612,-3.952049,Batubara,Rendah (< 5100),Swasta,Ogan Komering Ulu,Sumatera Selatan,Batubara Merbau,0,389,188.9,265.6,843.5,25.6,131,156.6,Juta Ton,2022
,104.013171,-2.443557,Batubara,Rendah (< 5100),Swasta,Musi Banyuasin,Sumatera Selatan,Batubara Bumi Kencana,0,120.363,77.649,57.489,255.501,31.448,9.79,41.238,Juta Ton,2022
,104.195265,-4.12347,Batubara,Rendah (< 5100),Swasta,Ogan Komering Ulu,Sumatera Selatan,Batubara Laya,0,4.733826,10.42516,19.351503,34.510489,14.481217,4.949,19.430217,Juta Ton,2022
,103.728822,-3.676345,Batubara,Rendah (< 5100),Swasta,Lahat,Sumatera Selatan,Batubara Sirah Pulau,0,23.1,56.2,7.8,87.1,41.5,2.1,43.6,Juta Ton,2022
,103.668402,-2.119344,Batubara,Rendah (< 5100),Swasta,Musi Banyuasin,Sumatera Selatan,Batubara Pangkalan Bayat,0,8.400657,6.462802,4.970802,19.834261,0,4.5,4.5,Juta Ton,2022
,103.737651,-3.807374,Batubara,Rendah (< 5100),Swasta,Muara Enim,Sumatera Selatan,Batubara Bukit Kendi 1,0,0.22,0.41,2.11,2.74,0.24,0.67,0.91,Juta Ton,2022
,103.763801,-2.689793,Batubara,Rendah (< 5100),Swasta,Musi Banyuasin,Sumatera Selatan,Batubara Pinggap,0,236.4,0,0,236.4,0,0,0,Juta Ton,2022
,103.681171,-3.024701,Batubara,Rendah (< 5100),Swasta,Musi Banyuasin,Sumatera Selatan,Batubara Kerta Jaya,0,22.599925,0,0,22.599925,8.01,0,8.01,Juta Ton,2022
,103.558045,-3.718416,Batubara,Rendah (< 5100),Swasta,Lahat,Sumatera Selatan,Batubara Senabing 1,0,1.1,1.55,5.01,7.66,0.486,3.014,3.5,Juta Ton,2022
,103.831029,-2.161543,Batubara,Rendah (< 5100),Swasta,Musi Banyuasin,Sumatera Selatan,Batubara Sindang Marga,0,15.247228,9.089458,0,24.336686,5.807816,0,5.807816,Juta Ton,2022
,103.185369,-2.963985,Batubara,Rendah (< 5100),Swasta,Musi Rawas,Sumatera Selatan,Batubara Lubuk Tua 1,0,31.369,103.896,148.961,284.226,44.525,81.162,125.687,Juta Ton,2022
,104.08457,-2.827559,Batubara,Rendah (< 5100),Swasta,Musi Banyuasin,Sumatera Selatan,Batubara Lais 2,0,7.9,16.5,16.2,40.6,4.6,9,13.6,Juta Ton,2022
,103.744953,-3.07,Batubara,Rendah (< 5100),Swasta,Musi Banyuasin,Sumatera Selatan,Batubara Tebing Bulang,0,12.7413,16.9884,18.876,48.6057,0,10.1,10.1,Juta Ton,2022
,104.130784,-3.397753,Batubara,Rendah (< 5100),Swasta,Muara Enim,Sumatera Selatan,Batubara Gunung Raja,0,19,29.4,20.6,69,5.9,9.72,15.62,Juta Ton,2022
,103.811613,-2.230288,Batubara,Rendah (< 5100),Swasta,Musi Banyuasin,Sumatera Selatan,Batubara Srimulyo 1,0,160,31,25,216,14.7,19.6,34.3,Juta Ton,2022
,104.170494,-3.429321,Batubara,Rendah (< 5100),Swasta,Kota Prabumulih,Sumatera Selatan,Batubara Gunung Kemala,0,0,8.6,46.75,55.35,36.3,0,36.3,Juta Ton,2022
,103.665977,-2.234544,Batubara,Rendah (< 5100),Swasta,Musi Banyuasin,Sumatera Selatan,Batubara Sinarharapan,0,6.091918,6.091918,6.171957,18.355793,7.342,0,7.342,Juta Ton,2022
,103.902328,-3.218365,Batubara,Rendah (< 5100),Swasta,Penukal Abab Lematang Ilir,Sumatera Selatan,Batubara Tambak,0,157.3,484.9,57.6,699.8,112.1,34.28,146.38,Juta Ton,2022
,104.158718,-2.256855,Batubara,Rendah (< 5100),Swasta,Musi Banyuasin,Sumatera Selatan,Batubara Muara Merang 1,0,7.84,26.53,23.52,57.89,7.12,8.97,16.09,Juta Ton,2022
,103.746283,-2.638213,Batubara,Rendah (< 5100),Swasta,Musi Banyuasin,Sumatera Selatan,Batubara Tanjungbali,0,38.573834,28.498732,19.700556,86.773122,37.393,11.317,48.71,Juta Ton,2022
,105.364334,-3.915644,Batubara,Rendah (< 5100),Swasta,Mesuji,Lampung,Batubara Bangun Jaya,0,149.6,134.2,29.6,313.4,109.8,0,109.8,Juta Ton,2022
,114.275077,-1.153369,Batubara,Rendah (< 5100),Swasta,Kapuas,Kalimantan Tengah,Batubara Pit 1 & Pit 2,0,8.8,22,4,34.8,9,1,10,Juta Ton,2022
,115.263743,-2.049242,Batubara,Rendah (< 5100),Swasta,Barito Timur,Kalimantan Tengah,Batubara Matarah,0,5.725,7.3,8.798,21.823,0,1.08,1.08,Juta Ton,2022
,112.882465,-1.188061,Batubara,Rendah (< 5100),Swasta,Katingan,Kalimantan Tengah,Batubara Tumbang Paku,0,38.9,42.4,7.3,88.6,29.1,0,29.1,Juta Ton,2022
,114.310927,-1.139895,Batubara,Rendah (< 5100),Swasta,Kapuas,Kalimantan Tengah,Batubara Karukus,0,10.6,45,7.8,63.4,34.9,6.6,41.5,Juta Ton,2022
,115.1683,-1.950845,Batubara,Rendah (< 5100),Swasta,Barito Timur,Kalimantan Tengah,Batubara Putuu Tawuluh,0,16.47,10.03,8.14,34.64,9.4,5.87,15.27,Juta Ton,2022
,115.151049,-1.978532,Batubara,Rendah (< 5100),Swasta,Barito Timur,Kalimantan Tengah,Batubara Patung,0,19.292,32.523,76.95,128.765,9.51,12.15,21.66,Juta Ton,2022
,113.630076,-1.3492,Batubara,Rendah (< 5100),Swasta,Gunung Mas,Kalimantan Tengah,Batubara Tumbang Kajuei,0,33,32,63,128,17,25.68,42.68,Juta Ton,2022
,113.609898,-1.346315,Batubara,Rendah (< 5100),Swasta,Gunung Mas,Kalimantan Tengah,Batubara Sungai Tihang,0,100.000611,23.540558,8.000046,131.541215,40.000246,0,40.000246,Juta Ton,2022
,114.997663,-1.032305,Batubara,Rendah (< 5100),Swasta,Barito Utara,Kalimantan Tengah,Batubara Kandui,0,49.345,42.505,208.922,300.772,17.716,12.008,29.724,Juta Ton,2022
,112.856418,-1.934503,Batubara,Rendah (< 5100),Swasta,Kotawaringin Timur,Kalimantan Tengah,Batubara Berunang Miri,0,15,138.8,0,153.8,17.78,0,17.78,Juta Ton,2022
,114.518452,-1.068914,Batubara,Rendah (< 5100),Swasta,Barito Utara,Kalimantan Tengah,Batubara Ruji,0,3.5,20.7,31.24,55.44,9.487,6.06,15.547,Juta Ton,2022
,115.037984,-3.198148,Batubara,Rendah (< 5100),Swasta,Banjar,Kalimantan Selatan,Batubara Keramat Mina,0,2.75,2.45,2.21,7.41,1.414,0.388,1.802,Juta Ton,2022
,115.225556,-2.932639,Batubara,Rendah (< 5100),Swasta,Tapin,Kalimantan Selatan,Batubara Bitahan Baru,0,0.7,23.03,106.724,130.454,3.267,59.537,62.804,Juta Ton,2022
,115.031283,-3.198412,Batubara,Rendah (< 5100),Swasta,Banjar,Kalimantan Selatan,Batubara Garis Hanyar 1,0,6.265,5.92,3.06,15.245,0,3.205,3.205,Juta Ton,2022
,116.027083,-3.240625,Batubara,Rendah (< 5100),Swasta,Kotabaru,Kalimantan Selatan,Batubara Kelumpang Hilir 2,0,4,32.11,15.365,51.475,9.596,8.588,18.184,Juta Ton,2022
,115.594244,-3.467316,Batubara,Rendah (< 5100),Swasta,Tanah Bumbu,Kalimantan Selatan,Batubara Mangkalapi 1,0,9.893,10.374,9.718,29.985,5.071,6.853,11.924,Juta Ton,2022
,115.038124,-3.212256,Batubara,Rendah (< 5100),Swasta,Banjar,Kalimantan Selatan,Batubara Keramat Mina 2,0,4.8,18.6,12.7,36.1,4.73,14.48,19.21,Juta Ton,2022
,115.102368,-3.106058,Batubara,Rendah (< 5100),Swasta,Tapin,Kalimantan Selatan,Batubara Pulau Pinang 1,0,10.73,13.27,14.89,38.89,9.35,8.43,17.78,Juta Ton,2022
,115.625618,-2.349375,Batubara,Rendah (< 5100),Swasta,Balangan,Kalimantan Selatan,Batubara Tawahan,0,3.4,27,104.39,134.79,5.14,53.85,58.99,Juta Ton,2022
,115.573617,-2.398304,Batubara,Rendah (< 5100),Swasta,Balangan,Kalimantan Selatan,Batubara Piyait,0,2.9,13.3,42,58.2,1.97,19.8,21.77,Juta Ton,2022
,116.214322,-2.930915,Batubara,Rendah (< 5100),Swasta,Kotabaru,Kalimantan Selatan,Batubara Sembilang 2,0,0.600659,0.735693,1.348134,2.684486,1.3277,0.85,2.1777,Juta Ton,2022
,115.583027,-2.352217,Batubara,Rendah (< 5100),Swasta,Balangan,Kalimantan Selatan,Batubara Hamarung,0,0.99,7.02,56.54,64.55,1.75,35.14,36.89,Juta Ton,2022
,117.954241,2.251695,Batubara,Rendah (< 5100),Swasta,Berau,Kalimantan Timur,Batubara Teluk Semanting,0,152.935,61.271,40.64,254.846,61.271,22.435,83.706,Juta Ton,2022
,117.350714,-0.505145,Batubara,Rendah (< 5100),Swasta,Kutai Kartanegara,Kalimantan Timur,Batubara Anggana 1,0,35.199,31.679,20.224,87.102,14.782,0.863,15.645,Juta Ton,2022
,117.194329,-0.65829,Batubara,Rendah (< 5100),Swasta,Kota Samarinda,Kalimantan Timur,Batubara Bantuas,0,0.628,6.643,0,7.271,1.95,0,1.95,Juta Ton,2022
,116.1698,0.549093,Batubara,Rendah (< 5100),Swasta,Kutai Kartanegara,Kalimantan Timur,Batubara Muara Ritan 1,0,3.54,164.08,98.93,266.55,154.436,86.51,240.946,Juta Ton,2022
,117.112822,-0.694298,Batubara,Rendah (< 5100),Swasta,Kutai Kartanegara,Kalimantan Timur,Batubara Dondang 1,0,47.9,48.4,59.502,155.802,20.8,34.002,54.802,Juta Ton,2022
,117.286895,-0.235478,Batubara,Rendah (< 5100),Swasta,Kutai Kartanegara,Kalimantan Timur,Batubara Muara Badak Ilir 1,0,241.919,135.799,46.833,424.551,121.761,21.37,143.131,Juta Ton,2022
,115.585787,-0.043073,Batubara,Rendah (< 5100),Swasta,Kutai Barat,Kalimantan Timur,Batubara Linggang Mapan,0,7.2,5.8,14.2,27.2,2.9,9.352,12.252,Juta Ton,2022
,117.013814,-1.025336,Batubara,Rendah (< 5100),Swasta,Kutai Kartanegara,Kalimantan Timur,Batubara Ambarawang Laut,0,0.305,0.289,0.156,0.75,0.192,0.188,0.38,Juta Ton,2022
,116.054563,-2.119988,Batubara,Rendah (< 5100),Swasta,Paser,Kalimantan Timur,Batubara Petangis 1,0,0.759,1.085,0.232,2.076,1.032,0.225,1.257,Juta Ton,2022
,116.766094,0.953109,Batubara,Rendah (< 5100),Swasta,Kutai Timur,Kalimantan Timur,Batubara Marah Haloq 1,0,60.49,30.644,22.923,114.057,0,0,0,Juta Ton,2022
,116.107206,0.534906,Batubara,Rendah (< 5100),Swasta,Kutai Kartanegara,Kalimantan Timur,Batubara Muara Ritan 2,0,0,23.7,297.8,321.5,3,67.2,70.2,Juta Ton,2022
,116.13824,0.394648,Batubara,Rendah (< 5100),Swasta,Kutai Kartanegara,Kalimantan Timur,Batubara Long Lala,0,0.19,4.04,7.346,11.576,8.074,52.25,60.324,Juta Ton,2022
,117.201977,-0.797693,Batubara,Rendah (< 5100),Swasta,Kutai Kartanegara,Kalimantan Timur,Batubara Purwajaya 1,0,0.6,4.483,6.995,12.078,2.13,0.737,2.867,Juta Ton,2022
,115.767752,-0.492865,Batubara,Rendah (< 5100),Swasta,Kutai Barat,Kalimantan Timur,Batubara Lotaq 1,0,7.524,4.943,3.989,16.456,2.32,0,2.32,Juta Ton,2022
,117.093485,-0.698297,Batubara,Rendah (< 5100),Swasta,Kutai Kartanegara,Kalimantan Timur,Batubara Tani Bhakti,0,88.1,10.2,68.4,166.7,3.7,20,23.7,Juta Ton,2022
,117.219762,-0.622035,Batubara,Rendah (< 5100),Swasta,Kota Samarinda,Kalimantan Timur,Batubara Pedingin 3,0,0.17,3.76,0.88,4.81,3.98,0.85,4.83,Juta Ton,2022
,116.182983,-1.655484,Batubara,Rendah (< 5100),Swasta,Paser,Kalimantan Timur,Batubara Samuntai,0,0.972901,0.786702,0.56,2.319603,0.169615,0.14,0.309615,Juta Ton,2022
,116.176695,-2.0893,Batubara,Rendah (< 5100),Swasta,Paser,Kalimantan Timur,Batubara Sungai Apar Kecil,0,0.01,1.55,0.22,1.78,0.32,0.05,0.37,Juta Ton,2022
,116.437508,0.695277,Batubara,Rendah (< 5100),Swasta,Kutai Timur,Kalimantan Timur,Batubara Long Tesak 1,0,8.149,2.42,1.096,11.665,0,0,0,Juta Ton,2022
,116.575721,0.722957,Batubara,Rendah (< 5100),Swasta,Kutai Timur,Kalimantan Timur,Batubara Long Pejeng,0,85.46,74.2,181.8,341.46,32,0,32,Juta Ton,2022
,116.167736,-2.049832,Batubara,Rendah (< 5100),Swasta,Paser,Kalimantan Timur,Batubara Tanah Grogot,0,4.533951,4.182522,3.957761,12.674234,3.33938,2.81907,6.15845,Juta Ton,2022
,116.157262,0.488912,Batubara,Rendah (< 5100),Swasta,Kutai Kartanegara,Kalimantan Timur,Batubara Long Lalang 2,0,238,150,282,670,152.58,221.5,374.08,Juta Ton,2022
,117.065106,-0.692871,Batubara,Rendah (< 5100),Swasta,Kutai Kartanegara,Kalimantan Timur,Batubara Batuah 3,0,0.34,5.47,33.43,39.24,0,7.32,7.32,Juta Ton,2022
,117.0234,-0.941904,Batubara,Rendah (< 5100),Swasta,Kutai Kartanegara,Kalimantan Timur,Batubara Bukit Merdeka 1,0,25.597374,16.830728,13.62,56.048102,0,0,0,Juta Ton,2022
,117.597323,2.702826,Batubara,Rendah (< 5100),Swasta,Bulungan,Kalimantan Utara,Batubara Jelerai Selor,0,25.55159,31.375266,44.857954,101.78481,38.161495,13.345225,51.50672,Juta Ton,2022
,117.828122,3.483821,Batubara,Rendah (< 5100),Swasta,Bulungan,Kalimantan Utara,Batubara Bunyu,0,85.05,65.07,55.06,205.18,41.02,50.03,91.05,Juta Ton,2022
,103.67769,-3.786624,Batubara,Rendah (< 5100),Swasta,Lahat,Sumatera Selatan,Batubara Ulak Pandan 1,0,0,4.42,15.233,19.653,7.628,11.941,19.569,Juta Ton,2022
,116.05508,-1.385992,Batubara,Rendah (< 5100),Swasta,Paser,Kalimantan Timur,Batubara Belimbing,0,2.4,5.6,14.2,22.2,5.6,0.9,6.5,Juta Ton,2022
,117.563569,2.296937,Batubara,Rendah (< 5100),Swasta,Berau,Kalimantan Timur,Batubara Lati,0,68.4,65.6,124.98,258.98,5.7,36.89,42.59,Juta Ton,2022
,101.939761,-3.261323,Batubara,Rendah (< 5100),Swasta,Bengkulu Utara,Bengkulu,Batubara Bukit Harapan,0,0.78,0.94,0.49,2.21,0.15,0.26,0.41,Juta Ton,2022
,101.836011,-3.210933,Batubara,Rendah (< 5100),Swasta,Bengkulu Utara,Bengkulu,Batubara Napal Putih,0,0.518,0.626,2.54,3.684,1.619,0.925,2.544,Juta Ton,2022
,104.032225,-3.505781,Batubara,Rendah (< 5100),Swasta,Muara Enim,Sumatera Selatan,Batubara Rambang Dangku,0,35.7,126.5,74.2,236.4,71,56,127,Juta Ton,2022
,103.589132,-2.139144,Batubara,Rendah (< 5100),Swasta,Musi Banyuasin,Sumatera Selatan,Batubara Bayung Lencir,0,18.3,10.2,6.1,34.6,2.3,1.9,4.2,Juta Ton,2022
,104.19077,-2.946587,Batubara,Rendah (< 5100),Swasta,Musi Banyuasin,Sumatera Selatan,Batubara Rantau Bayur 1,0,0,0,198.055,198.055,0,48.248,48.248,Juta Ton,2022
,103.717334,-2.265756,Batubara,Rendah (< 5100),Swasta,Musi Banyuasin,Sumatera Selatan,Batubara Srimulyo 2,0,1.287931,1.596,0,2.883931,2.251,0,2.251,Juta Ton,2022
,103.765179,-2.249469,Batubara,Rendah (< 5100),Swasta,Musi Banyuasin,Sumatera Selatan,Batubara Tampang Baru 3,0,5.939,7.83,0,13.769,2.596,1.003,3.599,Juta Ton,2022
,104.386538,-3.540058,Batubara,Rendah (< 5100),Swasta,Ogan Ilir,Sumatera Selatan,Batubara Tangai,0,22.9,16.5,11.2,50.6,14,9.5,23.5,Juta Ton,2022
,104.28035,-3.535812,Batubara,Rendah (< 5100),Swasta,Kota Prabumulih,Sumatera Selatan,Batubara Rambak,0,0.450376,1.572,15.603,17.625376,6.85,12.158,19.008,Juta Ton,2022
,103.598767,-3.714885,Batubara,Rendah (< 5100),Swasta,Lahat,Sumatera Selatan,Batubara Karang Rejo,0,21.942,41.174,34.167,97.283,13.59,1.669,15.259,Juta Ton,2022
,103.256087,-3.070097,Batubara,Rendah (< 5100),Swasta,Musi Rawas,Sumatera Selatan,Batubara Muara Kelingi,0,0.013027,0,0,0.013027,0,0,0,Juta Ton,2022
,103.633099,-3.711629,Batubara,Rendah (< 5100),Swasta,Lahat,Sumatera Selatan,Batubara Gunung Kembang,0,0.003,9.7,291.45,301.153,4.5,202.18,206.68,Juta Ton,2022
,104.569535,-4.155717,Batubara,Rendah (< 5100),Swasta,Ogan Komering Ulu Timur,Sumatera Selatan,Batubara Kedung Rejo,0,6,5.5,4.5,16,3,4,7,Juta Ton,2022
,104.148028,-4.098123,Batubara,Rendah (< 5100),Swasta,Ogan Komering Ulu,Sumatera Selatan,Batubara Batu Kuning,0,12,31.5,54.54,98.04,41,7.95,48.95,Juta Ton,2022
,104.11663,-2.530639,Batubara,Rendah (< 5100),Swasta,Banyuasin,Sumatera Selatan,Batubara Muba,0,3.53,12.63,58.21,74.37,23.99,28.05,52.04,Juta Ton,2022
,103.799477,-3.08258,Batubara,Rendah (< 5100),Swasta,Musi Banyuasin,Sumatera Selatan,Batubara Gajah Mati 2,0,3.12,0,0,3.12,1.08,0,1.08,Juta Ton,2022
,105.674049,-3.776382,Batubara,Rendah (< 5100),Swasta,Ogan Komering Ilir,Sumatera Selatan,Batubara Gajah Mulya,0,0,1000.6,0,1000.6,1000.6,0,1000.6,Juta Ton,2022
,104.398973,-4.046197,Batubara,Rendah (< 5100),Swasta,Ogan Komering Ulu Timur,Sumatera Selatan,Batubara Karya Makmur Viii,0,54.97,78.41,51.97,185.35,3.5,24.5,28,Juta Ton,2022
,104.010152,-2.363059,Batubara,Rendah (< 5100),Swasta,Musi Banyuasin,Sumatera Selatan,Batubara Beji Mulyo,0,38.61,76.63,118.03,233.27,5.17,8.27,13.44,Juta Ton,2022
,104.035408,-2.507898,Batubara,Rendah (< 5100),Swasta,Musi Banyuasin,Sumatera Selatan,Batubara Srigunung,0,6.77,11.12,34.66,52.55,1.63,12.22,13.85,Juta Ton,2022
,103.649345,-2.968453,Batubara,Rendah (< 5100),Swasta,Musi Banyuasin,Sumatera Selatan,Batubara Cinta Karya (C3),0,17.85829,11.390383,8.401956,37.650629,0,7.48,7.48,Juta Ton,2022
,103.884643,-3.687774,Batubara,Rendah (< 5100),Swasta,Muara Enim,Sumatera Selatan,Batubara Bangun Sari,0,17.9,23.3,0,41.2,10.85,0,10.85,Juta Ton,2022
,114.373349,-0.762499,Batubara,Rendah (< 5100),Swasta,Murung Raya,Kalimantan Tengah,Batubara Tumbang Salio,0,3.243,7.665,0,10.908,2.248,0,2.248,Juta Ton,2022
,114.767,-0.488246,Batubara,Rendah (< 5100),Swasta,Murung Raya,Kalimantan Tengah,Batubara Pelaci 2,0,0,0,24.975,24.975,5.968,4.415,10.383,Juta Ton,2022
,115.840001,-3.233504,Batubara,Rendah (< 5100),Swasta,Tanah Bumbu,Kalimantan Selatan,Batubara Sari Mulya 1,0,6.378,9.603,0,15.981,1.984,0,1.984,Juta Ton,2022
,115.551991,-2.441412,Batubara,Rendah (< 5100),Swasta,Balangan,Kalimantan Selatan,Batubara Bihara,0,0,0,0,0,0,0,0,Juta Ton,2022
,115.330585,-3.815605,Batubara,Rendah (< 5100),Swasta,Tanah Laut,Kalimantan Selatan,Batubara Sungai Cuka 7,0,8.248354,12.84705,14.66166,35.757064,17.213,4.303,21.516,Juta Ton,2022
,115.158057,-3.861214,Batubara,Rendah (< 5100),Swasta,Tanah Laut,Kalimantan Selatan,Batubara Simpang Empat Sungai 2,0,0,2.005,1.734,3.739,1.266,0.497,1.763,Juta Ton,2022
,117.572724,2.134371,Batubara,Rendah (< 5100),Swasta,Berau,Kalimantan Timur,Batubara Gurimbang,0,157,162.1,123.54,442.64,9.89,16.74,26.63,Juta Ton,2022
,116.200016,0.487386,Batubara,Rendah (< 5100),Swasta,Kutai Kartanegara,Kalimantan Timur,Batubara Gunung Sari 2,0,234,166,304,704,129,280,409,Juta Ton,2022
,117.062882,-0.922397,Batubara,Rendah (< 5100),Swasta,Kutai Kartanegara,Kalimantan Timur,Batubara Samboja Kuala 1,0,0.712961,0.511817,0.37223,1.597008,0.267,0.19,0.457,Juta Ton,2022
,101.350179,-0.840875,Batubara,Rendah (< 5100),Swasta,Sijunjung,Sumatera Barat,Batubara Kunangan Parit Rantan,0,0,0,0.8,0.8,0.79,0,0.79,Juta Ton,2022
,101.737162,-0.844345,Batubara,Rendah (< 5100),Swasta,Kuantan Singingi,Riau,Batubara Pangkalan,0,1.2,0.5,0.34,2.04,0.7,0.45,1.15,Juta Ton,2022
,101.76552,-3.206269,Batubara,Rendah (< 5100),Swasta,Bengkulu Utara,Bengkulu,Batubara Karang Tengah,0,28.041,16.281,9,53.322,1.825,7.73,9.555,Juta Ton,2022
,101.90092,-0.606207,Batubara,Rendah (< 5100),Swasta,Indragiri Hulu,Riau,Batubara Peranap,0,9.42,8.78,3.2,21.4,8.78,3.2,11.98,Juta Ton,2022
,102.020731,-0.650976,Batubara,Rendah (< 5100),Swasta,Indragiri Hulu,Riau,Batubara Semelinang Tebing 1,0,15,10.563,6.07,31.633,13.693,7.141,20.834,Juta Ton,2022
,102.398771,-1.23007,Batubara,Rendah (< 5100),Swasta,Tebo,Jambi,Batubara Muara Sekalo 3,0,17.84,13.54,8.92,40.3,3.13,2.3,5.43,Juta Ton,2022
,102.564036,-1.280263,Batubara,Rendah (< 5100),Swasta,Tebo,Jambi,Batubara Suo Suo 3,0,1.059,0.921,0.837,2.817,0.797,0,0.797,Juta Ton,2022
,102.82582,-1.75502,Batubara,Rendah (< 5100),Swasta,Batang Hari,Jambi,Batubara Padang Kelapo,0,21.128,11.762,0,32.89,9.519,0,9.519,Juta Ton,2022
,102.900778,-2.199128,Batubara,Rendah (< 5100),Swasta,Sarolangun,Jambi,Batubara Lubuk Napal 4,0,0,1.8,8,9.8,1.1,5.92,7.02,Juta Ton,2022
,102.945533,-2.155396,Batubara,Rendah (< 5100),Swasta,Sarolangun,Jambi,Batubara Lamban Sigatal 3,0,1.2,27.46,66.27,94.93,25.32,59.46,84.78,Juta Ton,2022
,102.959095,-2.109294,Batubara,Rendah (< 5100),Swasta,Sarolangun,Jambi,Batubara Rangkiling Simpang,0,25.9,8.7,23.4,58,4.57,12.463,17.033,Juta Ton,2022
,103.110305,-2.230885,Batubara,Rendah (< 5100),Swasta,Sarolangun,Jambi,Batubara Guruh Baru 1,0,0,0,0,0,17.489,0,17.489,Juta Ton,2022
,103.125246,-2.297817,Batubara,Rendah (< 5100),Swasta,Sarolangun,Jambi,Batubara Guruh Baru 2,0,0,76.864,3.361,80.225,28.63,0,28.63,Juta Ton,2022
,103.81999,-3.812585,Batubara,Rendah (< 5100),Swasta,Muara Enim,Sumatera Selatan,Batubara Elang dan Barat Enim,0,41.36,51,66.76,159.12,27.674,49.905,77.579,Juta Ton,2022
,104.031448,-3.425958,Batubara,Rendah (< 5100),Swasta,Muara Enim,Sumatera Selatan,Batubara Dalam,0,176,34,18,228,78,34,112,Juta Ton,2022
,104.153884,-2.31234,Batubara,Rendah (< 5100),Swasta,Musi Banyuasin,Sumatera Selatan,Batubara Muara Merang 2,0,16.31,20.76,13.36,50.43,16.39,11.21,27.6,Juta Ton,2022
,113.635303,-1.285161,Batubara,Rendah (< 5100),Swasta,Gunung Mas,Kalimantan Tengah,Batubara Tumbang Jutuh,0,98.5,23.640144,7.880047,130.020191,39.400245,0,39.400245,Juta Ton,2022
,113.697512,-1.243339,Batubara,Rendah (< 5100),Swasta,Gunung Mas,Kalimantan Tengah,Batubara Linau,0,48.082106,11.539703,3.846567,63.468376,19.232841,0,19.232841,Juta Ton,2022
,113.845842,-1.057371,Batubara,Rendah (< 5100),Swasta,Gunung Mas,Kalimantan Tengah,Batubara Tumbang Tambirah,0,13.6,15.14,32.84,61.58,6.5,23.4,29.9,Juta Ton,2022
,114.958451,-3.269567,Batubara,Rendah (< 5100),Swasta,Banjar,Kalimantan Selatan,Batubara Pematang Danau,0,0.143,0.185,5.557,5.885,0.083,2.051,2.134,Juta Ton,2022
,115.534348,-3.55515,Batubara,Rendah (< 5100),Swasta,Tanah Bumbu,Kalimantan Selatan,Batubara Mangkalapi 3,0,1.887,1.451,1.161,4.499,1.015,0.672,1.687,Juta Ton,2022
,115.62261,-2.032574,Batubara,Rendah (< 5100),Swasta,Tabalong,Kalimantan Selatan,Batubara Kinarum,0,16.8,12.5479,8.446,37.7939,0,3.954,3.954,Juta Ton,2022
,115.62712,-3.69789,Batubara,Rendah (< 5100),Swasta,Tanah Bumbu,Kalimantan Selatan,Batubara Banjar Sari 1,0,0,0.306,3.1045,3.4105,0,0.664,0.664,Juta Ton,2022
,115.627703,-3.687733,Batubara,Rendah (< 5100),Swasta,Tanah Bumbu,Kalimantan Selatan,Batubara Banjar Sari 2,0,0,4.456,4.333,8.789,0,2.609,2.609,Juta Ton,2022
,116.008028,-3.24312,Batubara,Rendah (< 5100),Swasta,Tanah Bumbu,Kalimantan Selatan,Batubara Batu Ampar 3,0,0,0,0.38,0.38,0,3.01,3.01,Juta Ton,2022
,116.125119,-1.775854,Batubara,Rendah (< 5100),Swasta,Paser,Kalimantan Timur,Batubara Kerta Bumi,0,0,0.058,0.315,0.373,0.052,0.263,0.315,Juta Ton,2022
,116.194761,-2.028335,Batubara,Rendah (< 5100),Swasta,Paser,Kalimantan Timur,Batubara Suatang,0,0.728,0.255,0.249,1.232,0.249,0.215,0.464,Juta Ton,2022
,116.541087,0.613573,Batubara,Rendah (< 5100),Swasta,Kutai Timur,Kalimantan Timur,Batubara Long Poq Baru,0,61.82,35.99,40.67,138.48,0,0,0,Juta Ton,2022
,116.586113,-1.405346,Batubara,Rendah (< 5100),Swasta,Penajam Paser Utara,Kalimantan Timur,Batubara Sesulu,0,2.57,1.29,0.64,4.5,0.98,0.21,1.19,Juta Ton,2022
,116.605651,0.843819,Batubara,Rendah (< 5100),Swasta,Kutai Timur,Kalimantan Timur,Batubara Marah Haloq 2,0,620.461,1102.4,682.7,2405.561,380,648.1,1028.1,Juta Ton,2022
,116.623096,1.154728,Batubara,Rendah (< 5100),Swasta,Kutai Timur,Kalimantan Timur,Batubara Benhes 1,0,0,0,60.013,60.013,0,34.282,34.282,Juta Ton,2022
,116.741912,-1.189755,Batubara,Rendah (< 5100),Swasta,Penajam Paser Utara,Kalimantan Timur,Batubara Gersik 2,0,1.53,1.027,0.74,3.297,0.945,0.259,1.204,Juta Ton,2022
,116.935758,-1.092604,Batubara,Rendah (< 5100),Swasta,Kutai Kartanegara,Kalimantan Timur,Batubara Karya Merdeka,0,0.35,1.7,0,2.05,0.35,0.739,1.089,Juta Ton,2022
,117.172737,-0.587383,Batubara,Rendah (< 5100),Swasta,Kota Samarinda,Kalimantan Timur,Batubara Handil Bakti,0,0.071,0.142,0.284,0.497,0.203,0.067,0.27,Juta Ton,2022
,117.180543,3.687005,Batubara,Rendah (< 5100),Swasta,Tana Tidung,Kalimantan Utara,Batubara Plaju,0,5.9,9.4,17.4,32.7,0.41,3.88,4.29,Juta Ton,2022
,117.216263,-0.673822,Batubara,Rendah (< 5100),Swasta,Kutai Kartanegara,Kalimantan Timur,Batubara Jawa 5,0,0.228,0.534,0.347,1.109,0.157,0.512,0.669,Juta Ton,2022
,117.238042,-0.6,Batubara,Rendah (< 5100),Swasta,Kota Samarinda,Kalimantan Timur,Batubara Bukuan,0,0.832,0.883,0.881,2.596,1.034,0.952,1.986,Juta Ton,2022
,117.285891,3.000712,Batubara,Rendah (< 5100),Swasta,Bulungan,Kalimantan Utara,Batubara Silva Rahayu 1,0,18.927,6.202,3.496,28.625,1.27,0,1.27,Juta Ton,2022
,117.309981,-0.499545,Batubara,Rendah (< 5100),Swasta,Kutai Kartanegara,Kalimantan Timur,Batubara Kutai Lama 3,0,0.29,0.469,0.63,1.389,0,0.21,0.21,Juta Ton,2022
,117.321961,-0.526215,Batubara,Rendah (< 5100),Swasta,Kutai Kartanegara,Kalimantan Timur,Batubara Kutai Lama 4,0,1.92,2.52,7.38,11.82,1.94,1.3,3.24,Juta Ton,2022
,117.332401,-0.331992,Batubara,Rendah (< 5100),Swasta,Kutai Kartanegara,Kalimantan Timur,Batubara Batu-Batu,0,65.998,32.525,34.513,133.036,0.19,2.03,2.22,Juta Ton,2022
,117.333591,-0.411269,Batubara,Rendah (< 5100),Swasta,Kutai Kartanegara,Kalimantan Timur,Batubara Salo Palai,0,11.422,11.011,7.12,29.553,5.869,5.051,10.92,Juta Ton,2022
,117.361465,0.606924,Batubara,Rendah (< 5100),Swasta,Kutai Timur,Kalimantan Timur,Batubara Mukti Jaya,0,2.834689,3.282965,16.32,22.437654,0,9.87,9.87,Juta Ton,2022
,117.368718,-0.365213,Batubara,Rendah (< 5100),Swasta,Kutai Kartanegara,Kalimantan Timur,Batubara Tanah Datar,0,10.33,17.94,26.59,54.86,3.05,4.58,7.63,Juta Ton,2022
,117.588966,2.64325,Batubara,Rendah (< 5100),Swasta,Bulungan,Kalimantan Utara,Batubara Sajau 2,0,83.977573,70.960352,57.636,212.573925,56.557032,45.245625,101.802657,Juta Ton,2022
,117.700075,2.651837,Batubara,Rendah (< 5100),Swasta,Bulungan,Kalimantan Utara,Batubara Binai,0,0,0,0,0,0,0,0,Juta Ton,2022
,117.943503,2.316844,Batubara,Rendah (< 5100),Swasta,Berau,Kalimantan Timur,Batubara Tanjung Batu,0,161.1,36.7,0,197.8,95.1,0,95.1,Juta Ton,2022
,117.743626,1.127899,Batubara,Rendah (< 5100),Swasta,Kutai Timur,Kalimantan Timur,Batubara Kadungan Jaya,0,37.4,30.8,85.3,153.5,10.64,20.2,30.84,Juta Ton,2022
,101.959729,-3.289973,Batubara,Rendah (< 5100),Swasta,Bengkulu Utara,Bengkulu,Batubara Margasakti,0,0.354,6,38.2,44.554,0.118,8.653,8.771,Juta Ton,2022
,103.844266,-3.920118,Batubara,Rendah (< 5100),Swasta,Muara Enim,Sumatera Selatan,Batubara Suban Jelawatan,0,1063.75,1279.63,729.27,3072.65,888.56,631.64,1520.2,Juta Ton,2022
,105.69467,-3.72569,Batubara,Rendah (< 5100),Swasta,Ogan Komering Ilir,Sumatera Selatan,Batubara Gajah Mati,0,54.5,0,0,54.5,0,0,0,Juta Ton,2022
,103.841654,-3.976661,Batubara,Rendah (< 5100),Swasta,Muara Enim,Sumatera Selatan,Batubara Tanjung Agung,0,98.7,99.5,152.7,350.9,49.88,0,49.88,Juta Ton,2022
,103.905193,-3.903119,Batubara,Rendah (< 5100),Swasta,Muara Enim,Sumatera Selatan,Batubara Rambang,0,19.92,30.96,22.21,73.09,22.2,0,22.2,Juta Ton,2022
,104.171519,-3.481998,Batubara,Rendah (< 5100),Swasta,Kota Prabumulih,Sumatera Selatan,Batubara Patih Galung,0,51.81,30.54,48.46,130.81,25,30,55,Juta Ton,2022
,115.420477,-1.401655,Batubara,Rendah (< 5100),Swasta,Barito Selatan,Kalimantan Tengah,Batubara Sungai Muntol,0,0,0,0,0,0,0,0,Juta Ton,2022
,116.204724,-2.783595,Batubara,Rendah (< 5100),Swasta,Kotabaru,Kalimantan Selatan,Batubara Sangsang,0,0,0,0,0,0,0,0,Juta Ton,2022
,116.076072,-3.285897,Batubara,Rendah (< 5100),Swasta,Tanah Bumbu,Kalimantan Selatan,Batubara Setangga,0,0,0,0,0,0,0,0,Juta Ton,2022
,116.209748,-2.908201,Batubara,Rendah (< 5100),Swasta,Kotabaru,Kalimantan Selatan,Batubara Sembilang 1,0,0,0,0,0,0,0,0,Juta Ton,2022
,115.615977,-3.74421,Batubara,Rendah (< 5100),Swasta,Tanah Bumbu,Kalimantan Selatan,Batubara Bunati,0,1.795,3.082,1.759,6.636,0.042,0.6,0.642,Juta Ton,2022
,116.018748,-3.253772,Batubara,Rendah (< 5100),Swasta,Tanah Bumbu,Kalimantan Selatan,Batubara Sarongga,0,34.27,44.26,198.76,277.29,16.2,140.19,156.39,Juta Ton,2022
,116.219294,-2.734355,Batubara,Rendah (< 5100),Swasta,Kotabaru,Kalimantan Selatan,Batubara Sepapah,0,0,0,0,0,0,0,0,Juta Ton,2022
,116.256277,-3.225161,Batubara,Rendah (< 5100),Swasta,Kotabaru,Kalimantan Selatan,Batubara Pulau Laut Utara,0,0,0,0,0,0,0,0,Juta Ton,2022
,115.283815,-3.825818,Batubara,Rendah (< 5100),Swasta,Tanah Laut,Kalimantan Selatan,Batubara Asam Asam,0,73.22,23.53,87.84,184.59,1.48,16.87,18.35,Juta Ton,2022
,115.217864,-3.750346,Batubara,Rendah (< 5100),Swasta,Tanah Laut,Kalimantan Selatan,Batubara Kintap,0,188.56,137.47,159.44,485.47,11.24,52.8,64.04,Juta Ton,2022
,115.37312,-3.790327,Batubara,Rendah (< 5100),Swasta,Tanah Bumbu,Kalimantan Selatan,Batubara Mulia,0,93.24,93.5,111.34,298.08,8.84,20.27,29.11,Juta Ton,2022
,115.616407,-3.712813,Batubara,Rendah (< 5100),Swasta,Tanah Bumbu,Kalimantan Selatan,Batubara Sungai Danau 1,0,3.537,3.165,2.904,9.606,2.851,2.561,5.412,Juta Ton,2022
,117.208595,-0.654943,Batubara,Rendah (< 5100),Swasta,Kota Samarinda,Kalimantan Timur,Batubara Bantuas 5,0,3.68,3.63,12.77,20.08,0.9,6.93,7.83,Juta Ton,2022
,117.339522,-0.459654,Batubara,Rendah (< 5100),Swasta,Kutai Kartanegara,Kalimantan Timur,Batubara Anggana 2,0,0.889,2.916,1.62,5.425,2.632,0.787,3.419,Juta Ton,2022
,116.187021,-2.059086,Batubara,Rendah (< 5100),Swasta,Paser,Kalimantan Timur,Batubara Petangis 3,0,0.579,0.547,0.399,1.525,0.365,0.382,0.747,Juta Ton,2022
,116.282834,-2.024479,Batubara,Rendah (< 5100),Swasta,Paser,Kalimantan Timur,Batubara Apsirbalengkong,0,0.28,1.93,12.4,14.61,6.814,6.383,13.197,Juta Ton,2022
,117.282438,-0.618665,Batubara,Rendah (< 5100),Swasta,Kutai Kartanegara,Kalimantan Timur,Batubara Snga-Sanga,0,1.68636,1.12814,0.965043,3.779543,0.781666,0.649666,1.431332,Juta Ton,2022
,116.229028,-2.131714,Batubara,Rendah (< 5100),Swasta,Paser,Kalimantan Timur,Batubara Baijaya,0,2.545,6.66,7.254,16.459,2.146,0.894,3.04,Juta Ton,2022
,117.70787,2.50872,Batubara,Rendah (< 5100),Swasta,Bulungan,Kalimantan Utara,Batubara Mangkupadi,0,141,0,0,141,0,0,0,Juta Ton,2022
,117.428541,2.802428,Batubara,Rendah (< 5100),Swasta,Bulungan,Kalimantan Utara,Batubara Tanjungselor,0,0.5,4.258,7.846,12.604,1.836,5.24,7.076,Juta Ton,2022
,103.976671,-2.492627,Batubara,Rendah (< 5100),Swasta,Musi Banyuasin,Sumatera Selatan,Batubara Cinta,0,204.3,175.7,87.1,467.1,65.8,42.5,108.3,Juta Ton,2022
,103.3574,-2.38431,Batubara,Rendah (< 5100),Swasta,Musi Banyuasin,Sumatera Selatan,Batubara Lubuk Bintialo 2,0,0,0,0,0,0,0,0,Juta Ton,2022
,117.115113,-0.641637,Batubara,Rendah (< 5100),Swasta,Kutai Kartanegara,Kalimantan Timur,Batubara Tani Bakti,0,0,0,13.25,13.25,3.916,12.5,16.416,Juta Ton,2022
,117.252129,-0.068157,Batubara,Rendah (< 5100),Swasta,Kutai Kartanegara,Kalimantan Timur,Batubara Maukiri,0,12,0,0,12,0,0,0,Juta Ton,2022
,116.91844,-0.679949,Batubara,Rendah (< 5100),Swasta,Kutai Kartanegara,Kalimantan Timur,Batubara Beruaq,0,18.6,35.17,31.52,85.29,2.09,3.39,5.48,Juta Ton,2022
,117.304112,-0.284194,Batubara,Rendah (< 5100),Swasta,Kutai Kartanegara,Kalimantan Timur,Batubara Muara Badak Ulu 9,0,4.463412,5.862642,11.267464,21.593518,0,2.6,2.6,Juta Ton,2022
,103.462119,-1.772222,Batubara,Rendah (< 5100),Swasta,Muaro Jambi,Jambi,Batubara Baru,0,0,0.96,6.905,7.865,0,1.975,1.975,Juta Ton,2022
,102.65888,-1.452614,Batubara,Rendah (< 5100),Swasta,Tebo,Jambi,Batubara Mengupeh 3,0,12.325,7.064,2.712,22.101,4.733,1.864,6.597,Juta Ton,2022
,102.996731,-1.722875,Batubara,Rendah (< 5100),Swasta,Batang Hari,Jambi,Batubara Mersam 3,0,0,0.07,6.03,6.1,0,0.584,0.584,Juta Ton,2022
,115.168415,-1.592908,Batubara,Rendah (< 5100),Swasta,Barito Selatan,Kalimantan Tengah,Batubara Luir,0,20.69,5.55,62,88.24,7.3,40.5,47.8,Juta Ton,2022
,115.154975,-2.033468,Batubara,Rendah (< 5100),Swasta,Barito Timur,Kalimantan Tengah,Batubara Jaweten,0,4.848,18.485,7.145,30.478,7.233,2.216,9.449,Juta Ton,2022
,115.305416,-2.032027,Batubara,Rendah (< 5100),Swasta,Barito Timur,Kalimantan Tengah,Batubara Desa Awang,0,0,0,1.138,1.138,1.099,0,1.099,Juta Ton,2022
,115.273915,-2.120164,Batubara,Rendah (< 5100),Swasta,Barito Timur,Kalimantan Tengah,Batubara Jaar,0,0,0,6.87,6.87,6.114,6.005,12.119,Juta Ton,2022
,115.170151,-3.05376,Batubara,Rendah (< 5100),Swasta,Tapin,Kalimantan Selatan,Batubara Pantai Cabe,0,9.409,3.92,1.704,15.033,3.409,0.975,4.384,Juta Ton,2022
,116.005563,-3.206179,Batubara,Rendah (< 5100),Swasta,Kotabaru,Kalimantan Selatan,Batubara Kelumpang Hilir,0,2.26,1.737,1.335,5.332,1.072,0.732,1.804,Juta Ton,2022
,101.70282,-1.287333,Batubara,Rendah (< 5100),Swasta,Bungo,Jambi,Batubara Ujung Tanjung 2,0,2.669,5.174,0,7.843,3.119,1.89,5.009,Juta Ton,2022
,117.740707,2.614725,Batubara,Rendah (< 5100),Swasta,Bulungan,Kalimantan Utara,Batubara Tanah Kuning,0,45,87,122,254,136.71,37.8,174.51,Juta Ton,2022
,114.266606,-1.158223,Batubara,Rendah (< 5100),Swasta,Kapuas,Kalimantan Tengah,Batubara Pit 3,0,0.4,3,7.25,10.65,1,7,8,Juta Ton,2022
,117.079832,-0.744653,Batubara,Rendah (< 5100),Swasta,Kutai Kartanegara,Kalimantan Timur,Batubara Batuah 4,0,0,0,4.389,4.389,0,2.119,2.119,Juta Ton,2022
,117.029362,-0.402749,Batubara,Rendah (< 5100),Swasta,Kutai Kartanegara,Kalimantan Timur,Batubara Tenggarong Seberang 3,0,0,1,1.5,2.5,0.06,0.314,0.374,Juta Ton,2022
,117.067169,-0.452269,Batubara,Rendah (< 5100),Swasta,Kota Samarinda,Kalimantan Timur,Batubara Lok Bahu,0,0,0,0.54,0.54,0,0.54,0.54,Juta Ton,2022
,117.31836,1.949249,Batubara,Rendah (< 5100),Swasta,Berau,Kalimantan Timur,Batubara Binungan 5,0,150,93.2,196.73,439.93,0.13,24.64,24.77,Juta Ton,2022
,117.298016,1.933188,Batubara,Rendah (< 5100),Swasta,Berau,Kalimantan Timur,Batubara Binungan 6,0,54,1,0,55,0,0,0,Juta Ton,2022
,117.154891,1.980658,Batubara,Rendah (< 5100),Swasta,Berau,Kalimantan Timur,Batubara Binungan 7,0,26.6,112.6,298.5,437.7,6.98,35.58,42.56,Juta Ton,2022
,117.191297,2.091303,Batubara,Rendah (< 5100),Swasta,Berau,Kalimantan Timur,Batubara Binungan 8,0,113,214.2,208.2,535.4,31.98,83.88,115.86,Juta Ton,2022
,117.211106,-0.601547,Batubara,Rendah (< 5100),Swasta,Kota Samarinda,Kalimantan Timur,Batubara Sungai Gilinggang,0,1.51,2.87,12.1,16.48,3.47,3.88,7.35,Juta Ton,2022
,116.927378,-1.093296,Batubara,Rendah (< 5100),Swasta,Kutai Kartanegara,Kalimantan Timur,Batubara Samboja 3,0,0.016,0.904,0,0.92,0.216,0,0.216,Juta Ton,2022
,117.340063,-0.469007,Batubara,Rendah (< 5100),Swasta,Kutai Kartanegara,Kalimantan Timur,Batubara Anggana 4,0,0.775,0.698,0.384,1.857,0.384,0.435,0.819,Juta Ton,2022
,131.20238,-1.28442,Batubara,Rendah (< 5100),Swasta,Sorong,Papua Barat,Batubara Ninjemur,0,4.31,6.24,3.94,14.49,6.32,4.31,10.63,Juta Ton,2022
,104.136079,-3.403166,Batubara,Rendah (< 5100),Swasta,Muara Enim,Sumatera Selatan,Batubara Air Limau,0,13.2,44.5,56.3,114,37.2,46.8,84,Juta Ton,2022
,104.495976,-4.17054,Batubara,Rendah (< 5100),Swasta,Ogan Komering Ulu,Sumatera Selatan,Batubara Lekis Rejo 1,0,55.945,17.387,5.284,78.616,0,8.493,8.493,Juta Ton,2022
,116.730958,-1.162118,Batubara,Rendah (< 5100),Swasta,Penajam Paser Utara,Kalimantan Timur,Batubara Penajam Blok Timur,0,0.827,0.646,0.464,1.937,0.102,0.093,0.195,Juta Ton,2022
,114.959222,-3.241554,Batubara,Rendah (< 5100),Swasta,Banjar,Kalimantan Selatan,Batubara Surian Hanyar,0,2.22,5.6,5.77,13.59,1.07,1.94,3.01,Juta Ton,2022
,116.051954,-2.67668,Batubara,Rendah (< 5100),Swasta,Kotabaru,Kalimantan Selatan,Batubara Magalau,0,258,387,0,645,203,0,203,Juta Ton,2022
,115.258792,-2.170955,Batubara,Rendah (< 5100),Swasta,Barito Timur,Kalimantan Tengah,Batubara Maragut,0,224.679,84.254,28.084,337.017,0,10.57,10.57,Juta Ton,2022
,116.235347,0.370938,Batubara,Rendah (< 5100),Swasta,Kutai Kartanegara,Kalimantan Timur,Batubara Kembang Janggut,0,1.16,54.47,22.68,78.31,29.314,24.457,53.771,Juta Ton,2022
,115.187917,-2.068339,Batubara,Rendah (< 5100),Swasta,Barito Timur,Kalimantan Tengah,Batubara Dusun Timur,0,19.679,7.989,4.747,32.415,0,5.849,5.849,Juta Ton,2022
,115.260808,-2.094004,Batubara,Rendah (< 5100),Swasta,Barito Timur,Kalimantan Tengah,Batubara Bentot,0,24.48,35.02,79.27,138.77,0,6.74,6.74,Juta Ton,2022
,117.245838,-0.644696,Batubara,Rendah (< 5100),Swasta,Kutai Kartanegara,Kalimantan Timur,Batubara Sanga-Sanga,0,0.25,0.29,0.29,0.83,0.13,0.09,0.22,Juta Ton,2022
,117.193493,-0.615334,Batubara,Rendah (< 5100),Swasta,Kota Samarinda,Kalimantan Timur,Batubara Palaran,0,1.09176128,0.94990373,0.82125401,2.86291902,0.462207,0.369308,0.831515,Juta Ton,2022
,101.975148,-0.46049,Batubara,Rendah (< 5100),Swasta,Indragiri Hulu,Riau,Batubara Serai Wangi,0,4.9,5.62,2.47,12.99,5.62,2.47,8.09,Juta Ton,2022
,116.088594,0.400533,Batubara,Rendah (< 5100),Swasta,Kutai Kartanegara,Kalimantan Timur,Batubara Tabang,0,59,39,19,117,0,0,0,Juta Ton,2022
,117.085541,-0.772808,Batubara,Rendah (< 5100),Swasta,Kutai Kartanegara,Kalimantan Timur,Batubara Loa Janan,0,1.58,1.98,10.58,14.14,0.5,4.27,4.77,Juta Ton,2022
,117.163193,-0.860607,Batubara,Rendah (< 5100),Swasta,Kutai Kartanegara,Kalimantan Timur,Batubara Samboja,0,0,0,0,0,1.090742,1.233,2.323742,Juta Ton,2022
,115.691134,0.112834,Batubara,Rendah (< 5100),Swasta,Kutai Barat,Kalimantan Timur,Batubara Tukul,0,0,0,0,0,43.013,23.161,66.174,Juta Ton,2022
,117.082012,-0.699429,Batubara,Rendah (< 5100),Swasta,Kutai Kartanegara,Kalimantan Timur,Batubara Batuah 5,0,3.85,8.103,3.882,15.835,3.754,0,3.754,Juta Ton,2022
,115.601841,-3.643086,Batubara,Rendah (< 5100),Swasta,Tanah Bumbu,Kalimantan Selatan,Batubara Bayan Sari,0,17.92,15.67,14.25,47.84,12.65,10.85,23.5,Juta Ton,2022
,117.020167,-1.079071,Batubara,Rendah (< 5100),Swasta,Kutai Kartanegara,Kalimantan Timur,Batubara Argosari 2,0,0.45,0,0.18,0.63,0.25,0.18,0.43,Juta Ton,2022
,112.584411,-2.006027,Batubara,Rendah (< 5100),Swasta,Kotawaringin Timur,Kalimantan Tengah,Batubara Satiung,0,0,0,2.82,2.82,2.28,0,2.28,Juta Ton,2022
,114.796819,-3.976279,Batubara,Rendah (< 5100),Swasta,Tanah Laut,Kalimantan Selatan,Batubara Sabuhur 2,0,19.44,16.2,12.96,48.6,8.43,6.097,14.527,Juta Ton,2022
,115.961662,-1.725083,Batubara,Rendah (< 5100),Swasta,Paser,Kalimantan Timur,Batubara Rantau Buta,0,0,0.12,11.05,11.17,0,2.65,2.65,Juta Ton,2022
,116.324678,0.303886,Batubara,Rendah (< 5100),Swasta,Kutai Kartanegara,Kalimantan Timur,Batubara Kelekat 2,0,19.61,4.52,1.87,26,1.13,2.28,3.41,Juta Ton,2022
,101.735903,-1.410668,Batubara,Rendah (< 5100),Swasta,Bungo,Jambi,Batabara Tanjung Belit,0,0,0,0,0,0,0,0,Juta Ton,2022
,116.284266,0.113518,Batubara,Rendah (< 5100),Swasta,Kutai Kartanegara,Kalimantan Timur,Batubara Kahala,0,165.55,72.95,38.68,277.18,46.96,20.42,67.38,Juta Ton,2022
,117.094803,-0.252907,Batubara,Rendah (< 5100),Swasta,Kutai Kartanegara,Kalimantan Timur,Batubara Sukamaju,0,13.49,0,0,13.49,10.913,0,10.913,Juta Ton,2022
,127.52338,-1.68346,Batubara,Sedang (5100-6100),Pemerintah,Halmahera Selatan,Maluku Utara,Batubara Pulau Obi,2.13,0,0,0,0,0,0,0,Juta Ton,2022
,101.638061,-0.824834,Batubara,Sedang (5100-6100),Pemerintah,Kuantan Singingi,Riau,Batubara Kuantan Mudik,0,22.59,0,0,22.59,0,0,0,Juta Ton,2022
,106.15763,-6.58127,Batubara,Sedang (5100-6100),Pemerintah,Lebak,Banten,Batubara Sajira,5.47,0,0,0,0,0,0,0,Juta Ton,2022
,106.35088,-6.54974,Batubara,Sedang (5100-6100),Pemerintah,Lebak,Banten,Batubara Bojongmanik,0,2.78,0,2.09,4.87,0,0,0,Juta Ton,2022
,132.66416,-1.37833,Batubara,Sedang (5100-6100),Pemerintah,Maybrat,Papua Barat,Batubara Ayawasi,0.162583,0,0,0,0,0,0,0,Juta Ton,2022
,130.94952,-1.08476,Batubara,Sedang (5100-6100),Pemerintah,Raja Ampat,Papua Barat,Batubara Selawati,76.4,0,0,0,0,0,0,0,Juta Ton,2022
,131.40717,-1.24464,Batubara,Sedang (5100-6100),Pemerintah,Sorong,Papua Barat,Batubara Klamono,13,0,0,0,0,0,0,0,Juta Ton,2022
,132.21686,-1.56108,Batubara,Sedang (5100-6100),Pemerintah,Sorong Selatan,Papua Barat,Batubara Teminabuan,0,1.91,0,0,1.91,0,0,0,Juta Ton,2022
,102.72827,-1.31838,Batubara,Sedang (5100-6100),Pemerintah,Tebo,Jambi,Batubara Sungai Lingkis,0,10.35,0,0,10.35,0,0,0,Juta Ton,2022
,102.99244,-1.71933,Batubara,Sedang (5100-6100),Pemerintah,Batang Hari,Jambi,Batubara Mersam 1,0,1.72,0,0,1.72,0,0,0,Juta Ton,2022
,103.54662,-1.77853,Batubara,Sedang (5100-6100),Pemerintah,Muaro Jambi,Jambi,Batubara Tempino,0,134.82,0,0,134.82,0,0,0,Juta Ton,2022
,102.27869,-2.06512,Batubara,Sedang (5100-6100),Pemerintah,Merangin,Jambi,Batubara Sungai Mengkarang,0,0.26,0,0,0.26,0,0,0,Juta Ton,2022
,103.30337,-2.1702,Batubara,Sedang (5100-6100),Pemerintah,Batang Hari,Jambi,Batubara Kota Tengah 1,0,0,206.68,0,206.68,0,0,0,Juta Ton,2022
,115.04344,-3.94989,Batubara,Sedang (5100-6100),Pemerintah,Tanah Laut,Kalimantan Selatan,Batubara Asam - Asam 1,0,10.4,0,0,10.4,0,0,0,Juta Ton,2022
,113.82994,-0.99126,Batubara,Sedang (5100-6100),Pemerintah,Gunung Mas,Kalimantan Tengah,Batubara Kuala Kurun,22.54,0,0,0,0,0,0,0,Juta Ton,2022
,117.55321,3.71271,Batubara,Sedang (5100-6100),Pemerintah,Tana Tidung,Kalimantan Utara,Batubara Mandul,0,0.63,0,0,0.63,0,0,0,Juta Ton,2022
,117.627897,3.263423,Batubara,Sedang (5100-6100),Pemerintah,Kota Tarakan,Kalimantan Utara,Batubara Tarakan,0,4.68,0,0,4.68,0,0,0,Juta Ton,2022
,117.67351,4.09408,Batubara,Sedang (5100-6100),Pemerintah,Nunukan,Kalimantan Utara,Batubara Sebatik,0,0.38,0,0,0.38,0,0,0,Juta Ton,2022
,116.77609,0.88177,Batubara,Sedang (5100-6100),Pemerintah,Kutai Timur,Kalimantan Timur,Batubara Telen,282.28,92.66,69.78,39.99,202.43,0,0,0,Juta Ton,2022
,117.30951,4.02783,Batubara,Sedang (5100-6100),Pemerintah,Nunukan,Kalimantan Utara,Batubara Simenggaris 1,6.7,0,0,0,0,0,0,0,Juta Ton,2022
,117.35302,0.15372,Batubara,Sedang (5100-6100),Pemerintah,Kutai Timur,Kalimantan Timur,Batubara Pelakan 2,18.96,59.89,69.24,74.78,203.91,0,0,0,Juta Ton,2022
,104.83009,-5.38044,Batubara,Sedang (5100-6100),Pemerintah,Tanggamus,Lampung,Batubara Way Seputih,0,14,0,0,14,0,0,0,Juta Ton,2022
,102.24504,-0.84594,Batubara,Sedang (5100-6100),Pemerintah,Indragiri Hulu,Riau,Batubara Siberida,0,51.57,0,0,51.57,0,0,0,Juta Ton,2022
,119.876677,-3.463749,Batubara,Sedang (5100-6100),Swasta,Maros,Sulawesi Selatan,Batubara Mattampa Pole 2,0,0,7.63,0.44,8.07,0,0,0,Juta Ton,2022
,119.89309,-4.81986,Batubara,Sedang (5100-6100),Pemerintah,Maros,Sulawesi Selatan,Batubara Mattampa Pole 1,1.994,0,0,0,0,0,0,0,Juta Ton,2022
,101.10299,-1.92132,Batubara,Sedang (5100-6100),Pemerintah,Pesisir Selatan,Sumatera Barat,Batubara Bukit Tujuh,0,105.77,0,0,105.77,0,0,0,Juta Ton,2022
,103.59522,-2.67495,Batubara,Sedang (5100-6100),Pemerintah,Musi Banyuasin,Sumatera Selatan,Batubara Babat Harileko,709.84,364.28,261.8,3727.46,4353.54,0,0,0,Juta Ton,2022
,104.04202,-2.60376,Batubara,Sedang (5100-6100),Pemerintah,Musi Banyuasin,Sumatera Selatan,Batubara Tamiang 1,0,116.22,0,0,116.22,0,0,0,Juta Ton,2022
,103.40173,-2.89039,Batubara,Sedang (5100-6100),Pemerintah,Musi Rawas,Sumatera Selatan,Batubara Sungai Pinang 1,1474.22,1113.42,439.53,238.33,1791.28,0,0,0,Juta Ton,2022
,103.27049,-2.23194,Batubara,Sedang (5100-6100),Pemerintah,Musi Banyuasin,Sumatera Selatan,Batubara Kota Tengah 2,366.73,138.89,95.09,65.66,299.64,0,0,0,Juta Ton,2022
,103.73826,-3.79907,Batubara,Sedang (5100-6100),Pemerintah,Muara Enim,Sumatera Selatan,Batubara Kungkilan,176.53,0,0,0,0,0,0,0,Juta Ton,2022
,98.71684,1.83032,Batubara,Sedang (5100-6100),Pemerintah,Tapanuli Tengah,Sumatera Utara,Batubara Sorkam,0,7,0,0,7,0,0,0,Juta Ton,2022
,102.39075,-1.30641,Batubara,Sedang (5100-6100),Pemerintah,Tebo,Jambi,Batubara Tebo,0,34.511,0,0,34.511,0,0,0,Juta Ton,2022
,140.07555,-2.5984,Batubara,Sedang (5100-6100),Pemerintah,Jayapura,Papua,Batubara Nimboran,0,2.16,0,0,2.16,0,0,0,Juta Ton,2022
,133.631,-3.06287,Batubara,Sedang (5100-6100),Pemerintah,Teluk Bintuni,Papua Barat,Batubara Kaimana,0.07,0,0,0,0,0,0,0,Juta Ton,2022
,125.59372,-1.87358,Batubara,Sedang (5100-6100),Pemerintah,Kepulauan Sula,Maluku Utara,Batubara Mangole-Taliabu,1.35,0,0,0,0,0,0,0,Juta Ton,2022
,102.38154,-2.29801,Batubara,Sedang (5100-6100),Pemerintah,Merangin,Jambi,Batubara Sarolangun,2.21,0,0,0,0,0,0,0,Juta Ton,2022
,113.3536,0.549068,Batubara,Sedang (5100-6100),Pemerintah,Kapuas Hulu,Kalimantan Barat,Batubara Suruk Manday,0.117,0,0,0,0,0,0,0,Juta Ton,2022
,119.347184,-2.560951,Batubara,Sedang (5100-6100),Swasta,Mamuju,Sulawesi Barat,Batubara Bonehau 3,0,15.13,0,0,15.13,0,0,0,Juta Ton,2022
,103.379,-1.292,Batubara,Sedang (5100-6100),Pemerintah,Muaro Jambi,Jambi,Batubara Tanjung Lanjut,73.486,24.285,0,0,24.285,0,0,0,Juta Ton,2022
,100.807457,-0.056852,Batubara,Sedang (5100-6100),Swasta,Kampar,Riau,Batubara Batu Sasak,0,3.146,1.515,1.549,6.21,3.064,1.549,4.613,Juta Ton,2022
,102.653876,-0.895153,Batubara,Sedang (5100-6100),Swasta,Indragiri Hilir,Riau,Batubara Sencalang,0,0.343,0.942,1.491,2.776,0.785,0.501,1.286,Juta Ton,2022
,100.972037,-0.790683,Batubara,Sedang (5100-6100),Swasta,Sijunjung,Sumatera Barat,Batubara Bukit Porogadang,0,0,0.78,0.34,1.12,0,0,0,Juta Ton,2022
,100.920283,-0.601588,Batubara,Sedang (5100-6100),Swasta,Sijunjung,Sumatera Barat,Batubara Tanjuang Emas,0,1.365,1.02375,0.84,3.22875,3.2,0,3.2,Juta Ton,2022
,100.961326,-0.622369,Batubara,Sedang (5100-6100),Swasta,Sijunjung,Sumatera Barat,Batubara Muaro Gambok,0,0.310256,0.197673,0,0.507929,0,0.507929,0.507929,Juta Ton,2022
,101.02226,-0.845025,Batubara,Sedang (5100-6100),Swasta,Sijunjung,Sumatera Barat,Batubara Latang,0,0,0,0.135,0.135,0,0,0,Juta Ton,2022
,100.980017,-0.794794,Batubara,Sedang (5100-6100),Swasta,Sijunjung,Sumatera Barat,Batubara Koto Tuo,0,0.114,0.367,0.134,0.615,0,0.431105,0.431105,Juta Ton,2022
,100.889594,-1.085535,Batubara,Sedang (5100-6100),Swasta,Solok,Sumatera Barat,Batubara Tabek,0,0,0,8,8,0,0,0,Juta Ton,2022
,100.822166,-0.678108,Batubara,Sedang (5100-6100),Swasta,Sijunjung,Sumatera Barat,Batubara Pamuatan Barat,0,0,0,26.2575,26.2575,0,0,0,Juta Ton,2022
,100.928642,-0.631773,Batubara,Sedang (5100-6100),Swasta,Sijunjung,Sumatera Barat,Batubara Sei Gemuruh,0,2.336758,0.692372,0.086546,3.115676,0,0,0,Juta Ton,2022
,102.111394,-1.73751,Batubara,Sedang (5100-6100),Swasta,Bungo,Jambi,Batubara Balai Jaya,0,0,0,1.75,1.75,0,1.75,1.75,Juta Ton,2022
,102.48171,-1.189845,Batubara,Sedang (5100-6100),Swasta,Tebo,Jambi,Batubara Desa Semabu,0,3.68,2.2,2.47,8.35,0,0,0,Juta Ton,2022
,101.718748,-1.297519,Batubara,Sedang (5100-6100),Swasta,Bungo,Jambi,Batubara Sirih Sekapur,0,0,0,2.496,2.496,1.664,0.600742,2.264742,Juta Ton,2022
,102.792023,-2.089905,Batubara,Sedang (5100-6100),Swasta,Sarolangun,Jambi,Batubara Lubuk Kepayang,0,13.25,7.68,3.5,24.43,0,0,0,Juta Ton,2022
,102.608538,-3.996755,Batubara,Sedang (5100-6100),Swasta,Seluma,Bengkulu,Batubara Sekalak 2,0,0.13,0.13,0.07,0.33,0,0,0,Juta Ton,2022
,103.620887,-3.770234,Batubara,Sedang (5100-6100),Swasta,Lahat,Sumatera Selatan,Batubara Muara Temiang 2,0,0.558,2.88,3.646,7.084,2.516,1.006,3.522,Juta Ton,2022
,103.998723,-3.264416,Batubara,Sedang (5100-6100),Swasta,Penukal Abab Lematang Ilir,Sumatera Selatan,Batubara Pantadewa,0,0.03,1.48,1.16,2.67,0,0,0,Juta Ton,2022
,104.305502,-4.063947,Batubara,Sedang (5100-6100),Swasta,Ogan Komering Ulu,Sumatera Selatan,Batubara Lubuk Banjar,0,103.8,118.7,228.5,451,44,149.7,193.7,Juta Ton,2022
,115.208708,-2.018611,Batubara,Sedang (5100-6100),Swasta,Barito Timur,Kalimantan Tengah,Batubara Awang,0,10.246,13.326,9.422,32.994,3.74,3.04,6.78,Juta Ton,2022
,114.432348,-0.764444,Batubara,Sedang (5100-6100),Swasta,Murung Raya,Kalimantan Tengah,Batubara Sungai Manyalop,0,29.050687,11.212304,5.606151,45.869142,0,0,0,Juta Ton,2022
,112.905246,-2.031877,Batubara,Sedang (5100-6100),Swasta,Kotawaringin Timur,Kalimantan Tengah,Batubara Keruing,0,10.814,9.612,12.015,32.441,0,15.716,15.716,Juta Ton,2022
,115.296216,-1.664209,Batubara,Sedang (5100-6100),Swasta,Barito Timur,Kalimantan Tengah,Batubara Baruyan,0,53.63,50.36,39.08,143.07,0,7.35,7.35,Juta Ton,2022
,114.569208,-1.164825,Batubara,Sedang (5100-6100),Swasta,Kapuas,Kalimantan Tengah,Batubara Batapah BQ,0,0,0,11.19,11.19,0,0,0,Juta Ton,2022
,114.982642,-0.874733,Batubara,Sedang (5100-6100),Swasta,Barito Utara,Kalimantan Tengah,Batubara Hurung,0,1.5,0,0,1.5,0,0,0,Juta Ton,2022
,115.122272,-1.408672,Batubara,Sedang (5100-6100),Swasta,Barito Selatan,Kalimantan Tengah,Batubara Tamparak,0,0,32.240747,7.97646,40.217207,0,0,0,Juta Ton,2022
,115.127949,-1.553529,Batubara,Sedang (5100-6100),Swasta,Barito Selatan,Kalimantan Tengah,Batubara Muka Haji,0,0,0,12.847498,12.847498,0,0,0,Juta Ton,2022
,115.1925,-1.956726,Batubara,Sedang (5100-6100),Swasta,Barito Timur,Kalimantan Tengah,Batubara Janah Jari,0,1.356,2.7,2.298,6.354,0.418,1.349,1.767,Juta Ton,2022
,114.342753,-1.192503,Batubara,Sedang (5100-6100),Swasta,Kapuas,Kalimantan Tengah,Batubara Manis,0,0,0,9.417811,9.417811,9.185,9.417811,18.602811,Juta Ton,2022
,115.036318,-0.803103,Batubara,Sedang (5100-6100),Swasta,Barito Utara,Kalimantan Tengah,Batubara Muarainu,0,0.508875,0.267259,0.284908,1.061042,0,0,0,Juta Ton,2022
,115.248084,-1.756111,Batubara,Sedang (5100-6100),Swasta,Barito Timur,Kalimantan Tengah,Batubara Lenggang,0,0.14,0.23,0.91,1.28,0,0,0,Juta Ton,2022
,115.256897,-3.834276,Batubara,Sedang (5100-6100),Swasta,Tanah Laut,Kalimantan Selatan,Batubara Pasir Putih,0,0,0,8.33,8.33,0,0,0,Juta Ton,2022
,115.470096,-3.654764,Batubara,Sedang (5100-6100),Swasta,Tanah Bumbu,Kalimantan Selatan,Batubara Jombang,0,3.48752,2.61564,3.84,9.94316,0,0,0,Juta Ton,2022
,115.635439,-2.386402,Batubara,Sedang (5100-6100),Swasta,Balangan,Kalimantan Selatan,Batubara Mayanau,0,9.282,4.59,3.1,16.972,0,0,0,Juta Ton,2022
,115.668484,-2.233733,Batubara,Sedang (5100-6100),Swasta,Balangan,Kalimantan Selatan,Batubara Hauwai,0,4.995978,2.695941,0.909039,8.600958,0,0,0,Juta Ton,2022
,115.407303,-3.735918,Batubara,Sedang (5100-6100),Swasta,Tanah Bumbu,Kalimantan Selatan,Batubara Simpang Empat 1,0,0.61,0,0.86,1.47,0,0,0,Juta Ton,2022
,114.849852,-3.940934,Batubara,Sedang (5100-6100),Swasta,Tanah Laut,Kalimantan Selatan,Batubara Jilatan,0,3.105263,0,2.17755,5.282813,0,0,0,Juta Ton,2022
,115.2171,-3.86202,Batubara,Sedang (5100-6100),Swasta,Tanah Laut,Kalimantan Selatan,Batubara Kintapura 1,0,0,0.622241,0.73,1.352241,0,0,0,Juta Ton,2022
,115.450955,-3.64346,Batubara,Sedang (5100-6100),Swasta,Tanah Bumbu,Kalimantan Selatan,Batubara Jombang 1,0,0,0,2.67,2.67,0,0,0,Juta Ton,2022
,116.34421,-3.503311,Batubara,Sedang (5100-6100),Swasta,Kotabaru,Kalimantan Selatan,Batubara Sarakaman 1,0,0,1.338304,0.791999,2.130303,0,0,0,Juta Ton,2022
,115.797345,-3.10314,Batubara,Sedang (5100-6100),Swasta,Kotabaru,Kalimantan Selatan,Batubara Hampang,0,1.17,1.872,0.936,3.978,0,0.75,0.75,Juta Ton,2022
,115.6245,-3.615698,Batubara,Sedang (5100-6100),Swasta,Tanah Bumbu,Kalimantan Selatan,Batubara Bayan Sari Prolindo,0,0,3.5,30.653,34.153,1.825,19.968,21.793,Juta Ton,2022
,115.458649,-3.718323,Batubara,Sedang (5100-6100),Swasta,Tanah Bumbu,Kalimantan Selatan,Batubara Satui Barat,0,13.17,17.36,19.47,50,6.75,0,6.75,Juta Ton,2022
,115.449505,-3.755489,Batubara,Sedang (5100-6100),Swasta,Tanah Bumbu,Kalimantan Selatan,Batubara Satui Barat 2,0,1.500746,1.274359,1.054019,3.829124,0,0,0,Juta Ton,2022
,115.677395,-2.265383,Batubara,Sedang (5100-6100),Swasta,Balangan,Kalimantan Selatan,Batubara Gunung Riut,0,31.522899,14.57,9.18,55.272899,0,0,0,Juta Ton,2022
,115.992651,-3.201692,Batubara,Sedang (5100-6100),Swasta,Kotabaru,Kalimantan Selatan,Batubara Serongga,0,2.978443,0,1.34,4.318443,0,0,0,Juta Ton,2022
,115.629602,-3.694977,Batubara,Sedang (5100-6100),Swasta,Tanah Bumbu,Kalimantan Selatan,Batubara Angsana 3,0,0.995,0.966,0.988,2.949,0.923,0.864,1.787,Juta Ton,2022
,117.078887,-0.804501,Batubara,Sedang (5100-6100),Swasta,Kutai Kartanegara,Kalimantan Timur,Batubara Teluk Dalam 2,0,0,0.137,3.92,4.057,0,0,0,Juta Ton,2022
,116.468399,0.508174,Batubara,Sedang (5100-6100),Swasta,Kutai Timur,Kalimantan Timur,Batubara Senyiur 1,0,12.540328,18.220523,44.53014,75.290991,0,0,0,Juta Ton,2022
,117.23534,-0.732193,Batubara,Sedang (5100-6100),Swasta,Kutai Kartanegara,Kalimantan Timur,Batubara Kampung Jawa,0,7.872867,5.349211,17.43379,30.655868,1.604763,15.643,17.247763,Juta Ton,2022
,115.543902,-0.431357,Batubara,Sedang (5100-6100),Swasta,Kutai Barat,Kalimantan Timur,Batubara Muara Bomboy 1,0,1.119312,2.238362,3.357937,6.715611,0,0,0,Juta Ton,2022
,116.890334,-0.728785,Batubara,Sedang (5100-6100),Swasta,Kutai Kartanegara,Kalimantan Timur,Batubara Sungai Payang 2,0,0.996,19.07,14.95,35.016,0,0,0,Juta Ton,2022
,115.800616,-1.76619,Batubara,Sedang (5100-6100),Swasta,Paser,Kalimantan Timur,Batubara Kasungai,0,11.369777,5.82,2.469304,19.659081,0,0,0,Juta Ton,2022
,117.23785,-0.61642,Batubara,Sedang (5100-6100),Swasta,Kota Samarinda,Kalimantan Timur,Batubara Pedingin 1,0,2.199,1.637,0.861,4.697,0,0.775,0.775,Juta Ton,2022
,117.249464,-0.719404,Batubara,Sedang (5100-6100),Swasta,Kutai Kartanegara,Kalimantan Timur,Batubara Muara Jawa Ulu 1,0,0,0,0.31,0.31,0,0,0,Juta Ton,2022
,117.183755,-0.678538,Batubara,Sedang (5100-6100),Swasta,Kota Samarinda,Kalimantan Timur,Batubara Tamapole 2,0,0,0.210522,3.382,3.592522,3.153,0.163,3.316,Juta Ton,2022
,115.561036,-0.787791,Batubara,Sedang (5100-6100),Swasta,Kutai Barat,Kalimantan Timur,Batubara Bentian Besar,0,17.993798,27.083815,23.131081,68.208694,0,49.96566,49.96566,Juta Ton,2022
,115.619141,0.222662,Batubara,Sedang (5100-6100),Swasta,Mahakam Ulu,Kalimantan Timur,Batubara Long Daliq 2,0,0,0,9.054573,9.054573,0,0,0,Juta Ton,2022
,115.673055,0.273101,Batubara,Sedang (5100-6100),Swasta,Mahakam Ulu,Kalimantan Timur,Batubara Long Daliq 4,0,13.170249,7.998495,3.382434,24.551178,0,0,0,Juta Ton,2022
,115.388294,-0.280745,Batubara,Sedang (5100-6100),Swasta,Kutai Barat,Kalimantan Timur,Batubara Jontai,0,3.78,19,30.92,53.7,10.15,16.51,26.66,Juta Ton,2022
,116.546832,-1.009382,Batubara,Sedang (5100-6100),Swasta,Penajam Paser Utara,Kalimantan Timur,Batubara Pemaluan,0,50.401358,0,0,50.401358,0,0,0,Juta Ton,2022
,116.321328,-1.575686,Batubara,Sedang (5100-6100),Swasta,Paser,Kalimantan Timur,Batubara Jemparing,0,0,2.3,1.38,3.68,1.28,0,1.28,Juta Ton,2022
,117.654058,0.633544,Batubara,Sedang (5100-6100),Swasta,Kutai Timur,Kalimantan Timur,Batubara Bengalo,0,8.376441,8.11381,13.77,30.260251,0,0,0,Juta Ton,2022
,115.521656,-0.794394,Batubara,Sedang (5100-6100),Swasta,Kutai Barat,Kalimantan Timur,Batubara Besik,0,9.577369,15.208344,8.001112,32.786825,0,0,0,Juta Ton,2022
,117.244165,-0.753181,Batubara,Sedang (5100-6100),Swasta,Kutai Kartanegara,Kalimantan Timur,Batubara Muara Kembang 1,0,0.12,1.11,5.62,6.85,0.046,1.59,1.639,Juta Ton,2022
,116.100616,-2.167098,Batubara,Sedang (5100-6100),Swasta,Paser,Kalimantan Timur,Batubara Kerang 1,0,0,0.25,0.24,0.49,0,0,0,Juta Ton,2022
,116.506948,3.289687,Batubara,Sedang (5100-6100),Swasta,Malinau,Kalimantan Utara,Batubara Setarap,0,2.5,1.3,0.275,4.075,0,0,0,Juta Ton,2022
,116.463702,-1.452636,Batubara,Sedang (5100-6100),Swasta,Penajam Paser Utara,Kalimantan Timur,Batubara Gunung Intan,0,0,0,8.84,8.84,0,0,0,Juta Ton,2022
,116.858721,-0.975896,Batubara,Sedang (5100-6100),Swasta,Penajam Paser Utara,Kalimantan Timur,Batubara Semoi IV,0,0,0,0.01,0.01,0,0,0,Juta Ton,2022
,117.071992,-0.796695,Batubara,Sedang (5100-6100),Swasta,Kutai Kartanegara,Kalimantan Timur,Batubara Teluk Dalam 4,0,0,0.63,0.579541,1.209541,0,0,0,Juta Ton,2022
,117.387277,1.382505,Batubara,Sedang (5100-6100),Swasta,Kutai Timur,Kalimantan Timur,Batubara Sungai Karangan,0,38.75,40.044,24.353,103.147,16.064,13.654,29.718,Juta Ton,2022
,117.328056,-0.466666,Batubara,Sedang (5100-6100),Swasta,Kutai Kartanegara,Kalimantan Timur,Batubara Sungai Pangkalan,0,1.325,1.092,0.821,3.238,0.57,0.34,0.91,Juta Ton,2022
,116.685732,-0.489433,Batubara,Sedang (5100-6100),Swasta,Kutai Kartanegara,Kalimantan Timur,Batubara Sungai Yutak,0,0,61.39,66.686431,128.076431,0,0,0,Juta Ton,2022
,102.306119,-1.074997,Batubara,Sedang (5100-6100),Swasta,Tebo,Jambi,Batubara Pemayongan 1,0,37.946574,23.068261,19.117969,80.132804,19.18,0,19.18,Juta Ton,2022
,116.069443,-0.190534,Batubara,Sedang (5100-6100),Swasta,Kutai Barat,Kalimantan Timur,Batubara Abit,0,319.478677,159.739338,30.965739,510.183754,87.25,21.81,109.06,Juta Ton,2022
,116.746623,-1.184472,Batubara,Sedang (5100-6100),Swasta,Penajam Paser Utara,Kalimantan Timur,Batubara Gersik 1,0,7.882,7.137,1.192,16.211,2.283,1.192,3.475,Juta Ton,2022
,115.662483,-0.982344,Batubara,Sedang (5100-6100),Swasta,Kutai Barat,Kalimantan Timur,Batubara Tukuq,0,6.351956,3.987775,2.848411,13.188142,2.70599,0,2.70599,Juta Ton,2022
,115.388203,-0.584659,Batubara,Sedang (5100-6100),Swasta,Kutai Barat,Kalimantan Timur,Batubara Mantar 1,0,0,0.695,0.823,1.518,0,4.588257,4.588257,Juta Ton,2022
,116.883328,-0.760631,Batubara,Sedang (5100-6100),Swasta,Kutai Kartanegara,Kalimantan Timur,Batubara Jembayan,0,23.621029,19.501811,13.750551,56.873391,11.457748,0,11.457748,Juta Ton,2022
,114.939562,-3.870639,Batubara,Sedang (5100-6100),Swasta,Tanah Laut,Kalimantan Selatan,Batubara Damit 1,0,5.69,5.07,4.49,15.25,2.363,1.709,4.072,Juta Ton,2022
,116.869269,-0.534804,Batubara,Sedang (5100-6100),Swasta,Kutai Kartanegara,Kalimantan Timur,Batubara Ponoragan,0,0,3.95,4.247321,8.197321,0,0,0,Juta Ton,2022
,116.85443,-1.032129,Batubara,Sedang (5100-6100),Swasta,Kutai Kartanegara,Kalimantan Timur,Batubara Sei Merdeka 1,0,1.946,3.952,4.45,10.348,0.7,1.362,2.062,Juta Ton,2022
,116.401159,0.428469,Batubara,Sedang (5100-6100),Swasta,Kutai Timur,Kalimantan Timur,Batubara Pulau Pinang 2,0,4.728736,2.490465,3.369818,10.589019,0,0,0,Juta Ton,2022
,115.807855,-1.806664,Batubara,Sedang (5100-6100),Swasta,Paser,Kalimantan Timur,Batubara Gunung Bawanak,0,44.28484,28.40689,24.828,97.51973,9.3,10.35191,19.65191,Juta Ton,2022
,117.026376,-0.718682,Batubara,Sedang (5100-6100),Swasta,Kutai Kartanegara,Kalimantan Timur,Batubara Loa Janan Ulu 3,0,0,0.924,12.534,13.458,0,4.84,4.84,Juta Ton,2022
,117.065106,-0.692871,Batubara,Rendah (< 5100),Swasta,Kutai Kartanegara,Kalimantan Timur,Batubara Batuah 3,0,0.34,5.47,33.43,39.24,0,7.32,7.32,Juta Ton,2022
,117.211634,-0.734562,Batubara,Sedang (5100-6100),Swasta,Kutai Kartanegara,Kalimantan Timur,Batubara Jawa 1,0,0.71,0.51,0.439,1.659,0.51,0.439,0.949,Juta Ton,2022
,117.208324,3.720535,Batubara,Sedang (5100-6100),Swasta,Tana Tidung,Kalimantan Utara,Batubara Linuang Kayam,0,19.689482,14.655025,25.72,60.064507,0,0,0,Juta Ton,2022
,117.163467,3.682478,Batubara,Sedang (5100-6100),Swasta,Tana Tidung,Kalimantan Utara,Batubara Katul,0,2.16,2.37,2.58,7.11,0.146394,0.341588,0.487982,Juta Ton,2022
,119.344071,-2.463064,Batubara,Sedang (5100-6100),Swasta,Mamuju,Sulawesi Barat,Batubara Blok Pure,0,5.417,2.708,1.354,9.479,0,5.531,5.531,Juta Ton,2022
,116.70581,1.04299,Batubara,Sedang (5100-6100),Pemerintah,Pelalawan,Riau,Batubara Pelalawan,3.86009,0,0,0,0,0,0,0,Juta Ton,2022
,102.62842,-1.799201,Batubara,Sedang (5100-6100),Pemerintah,Tebo,Jambi,Batubara Batusawar,3.21562,0,0,0,0,0,0,0,Juta Ton,2022
,101.674671,-0.21723,Batubara,Sedang (5100-6100),Pemerintah,Pelalawan,Riau,Batubara Pangkalan Lesung,0,19.179,0,0,19.179,0,0,0,Juta Ton,2022
,101.68744,-0.3189,Batubara,Sedang (5100-6100),Swasta,Kuantan Singingi,Riau,Batubara Sungai Rambai,0,56.06,83.45,53.43,192.94,0,0,0,Juta Ton,2022
,100.837381,-1.747832,Batubara,Sedang (5100-6100),Pemerintah,Pesisir Selatan,Sumatera Barat,Batubara Linggo Sari Baganti,1.194,0,0,0,0,0,0,0,Juta Ton,2022
,114.957898,-3.894518,Batubara,Sedang (5100-6100),Swasta,Tanah Laut,Kalimantan Selatan,Batubara Batalang 1,0,0,0,0,0,0.74,0,0.74,Juta Ton,2022
,103.22523,-2.63018,Batubara,Sedang (5100-6100),Pemerintah,Musi Rawas Utara,Sumatera Selatan,Batubara Pauh,0,170,0,0,170,0,0,0,Juta Ton,2022
,103.532313,-1.626552,Batubara,Sedang (5100-6100),Pemerintah,Muaro Jambi,Jambi,Batubara Muara Jernih,9.59,0,0,0,0,0,0,0,Juta Ton,2022
,102.954005,-1.738648,Batubara,Sedang (5100-6100),Swasta,Batang Hari,Jambi,Batubara Mersam 2,0,0.140103,4.987894,19.729961,24.857958,6.824627,7.052869,13.877496,Juta Ton,2022
,103.35831,-1.908455,Batubara,Sedang (5100-6100),Swasta,Batang Hari,Jambi,Batubara Sumber Mulya,0,11.056,8.901,26.4278,46.3848,0,4.925,4.925,Juta Ton,2022
,102.685752,-1.501641,Batubara,Sedang (5100-6100),Swasta,Tebo,Jambi,Batubara Kunangan 2,0,26.228,12.952,5.296,44.476,2.615,2.353,4.968,Juta Ton,2022
,102.273201,-3.494765,Batubara,Sedang (5100-6100),Swasta,Bengkulu Utara,Bengkulu,Batubara Air Banai,0,5.25,4.725,4,13.975,0,3.25,3.25,Juta Ton,2022
,103.208495,-2.816686,Batubara,Sedang (5100-6100),Swasta,Musi Rawas,Sumatera Selatan,Batubara Pelita Jaya,0,24.662056,0,0,24.662056,0,0,0,Juta Ton,2022
,103.920963,-2.267896,Batubara,Sedang (5100-6100),Swasta,Musi Banyuasin,Sumatera Selatan,Batubara Simpang Tungkal 1,0,0.941,3.041,5.767,9.749,0,0.535,0.535,Juta Ton,2022
,102.558436,-3.785,Batubara,Sedang (5100-6100),Swasta,Bengkulu Tengah,Bengkulu,Batubara Rejang,0,0,0,0,0,0,0,0,Juta Ton,2022
,115.550467,0.590424,Batubara,Sedang (5100-6100),Swasta,Mahakam Ulu,Kalimantan Timur,Batubara Long Merah 1,0,0,0,0,0,0,0,0,Juta Ton,2022
,115.456867,-3.60124,Batubara,Sedang (5100-6100),Swasta,Tanah Bumbu,Kalimantan Selatan,Batubara Jombang 2,0,0.1,0.95,1.86,2.91,0.79,0.54,1.33,Juta Ton,2022
,114.917339,-3.883233,Batubara,Sedang (5100-6100),Swasta,Tanah Laut,Kalimantan Selatan,Batubara Damit 2,0,5.019,3.346,2.509,10.874,2.491,2.615,5.106,Juta Ton,2022
,116.339143,-2.676683,Batubara,Sedang (5100-6100),Swasta,Kotabaru,Kalimantan Selatan,Batubara Talusi,0,0.809,1.156,1.361,3.326,0,0.965,0.965,Juta Ton,2022
,115.304633,-3.79544,Batubara,Sedang (5100-6100),Swasta,Tanah Laut,Kalimantan Selatan,Batubara Sungai Cuka 9,0,0.13,0,0,0.13,0,2.558,2.558,Juta Ton,2022
,115.427114,-3.663453,Batubara,Sedang (5100-6100),Swasta,Tanah Bumbu,Kalimantan Selatan,Batubara Jombang 3,0,0,0.97,0,0.97,0,0,0,Juta Ton,2022
,116.358399,-3.464222,Batubara,Sedang (5100-6100),Swasta,Kotabaru,Kalimantan Selatan,Batubara Sarakaman 2,0,0,7.974,29.461,37.435,6.771,9.226,15.997,Juta Ton,2022
,115.626477,-3.652147,Batubara,Sedang (5100-6100),Swasta,Tanah Bumbu,Kalimantan Selatan,Batubara Makmur 2,0,9.300704,7.422992,5.6,22.323696,4.390403,3.25,7.640403,Juta Ton,2022
,115.428495,-3.697325,Batubara,Sedang (5100-6100),Swasta,Tanah Bumbu,Kalimantan Selatan,Batubara Jombang 4,0,0.553892,0.94,0.74,2.233892,0,0,0,Juta Ton,2022
,114.886485,-3.937499,Batubara,Sedang (5100-6100),Swasta,Tanah Laut,Kalimantan Selatan,Batubara Jilatan Alur 2,0,2.056782,4.53,1.425194,8.011976,0,0,0,Juta Ton,2022
,115.432516,-2.018694,Batubara,Sedang (5100-6100),Swasta,Tabalong,Kalimantan Selatan,Batubara Kitang,0,9.245,6.318,3.218,18.781,1.165,3.448,4.613,Juta Ton,2022
,115.015121,-3.263031,Batubara,Sedang (5100-6100),Swasta,Banjar,Kalimantan Selatan,Batubara Bawahan Selan,0,5.331897,1.66,1.031878,8.023775,1.031878,0.05,1.081878,Juta Ton,2022
,115.57178,-3.558935,Batubara,Sedang (5100-6100),Swasta,Tanah Bumbu,Kalimantan Selatan,Batubara Sumber Arum,0,2.58371,2.265903,1.934252,6.783865,1.734582,1.282026,3.016608,Juta Ton,2022
,115.156222,-3.884234,Batubara,Sedang (5100-6100),Swasta,Tanah Laut,Kalimantan Selatan,Batubara Simpang Empat Sungai 1,0,0,0,2.45,2.45,0,0,0,Juta Ton,2022
,115.847932,0.169117,Batubara,Sedang (5100-6100),Swasta,Kutai Barat,Kalimantan Timur,Batubara Muara Batuq 1,0,1.392,2.638,3.298,7.328,5.444,12.703,18.147,Juta Ton,2022
,117.224981,-0.356163,Batubara,Sedang (5100-6100),Swasta,Kota Samarinda,Kalimantan Timur,Batubara Sungai Siring 3,0,5.686,4.722,4.254,14.662,2.127,1.758,3.885,Juta Ton,2022
,116.162513,-2.158104,Batubara,Sedang (5100-6100),Swasta,Paser,Kalimantan Timur,Batubara Langgai 2,0,6.17,3.09,2.93,12.19,3.09,2.93,6.02,Juta Ton,2022
,117.020464,-0.325135,Batubara,Sedang (5100-6100),Swasta,Kutai Kartanegara,Kalimantan Timur,Batubara Loa Tebu 2,0,4.505,6.88,5.98,17.365,0,0,0,Juta Ton,2022
,115.68737,0.168388,Batubara,Sedang (5100-6100),Swasta,Kutai Barat,Kalimantan Timur,Batubara Mata Libaq,0,19.578,7.165,3.346,30.089,0,16.477,16.477,Juta Ton,2022
,103.666947,-3.791978,Batubara,Sedang (5100-6100),Swasta,Lahat,Sumatera Selatan,Batubara Ulak Pandan 2,0,0,0,13.57,13.57,0,0,0,Juta Ton,2022
,96.299009,4.26614,Batubara,Sedang (5100-6100),Swasta,Nagan Raya,Aceh,Batubara Blang Lango,0,0,14.55,52.362,66.912,0.377,6.482,6.859,Juta Ton,2022
,115.613457,-3.697064,Batubara,Sedang (5100-6100),Swasta,Tanah Bumbu,Kalimantan Selatan,Batubara Bayan Sari,0,6.397,5.579,11.438,23.414,1.386,10.051,11.437,Juta Ton,2022
,100.295249,0.594106,Batubara,Sedang (5100-6100),Swasta,Rokan Hulu,Riau,Batubara Tibawan,0,8.909,7.502,0,16.411,6.001,0,6.001,Juta Ton,2022
,101.67608,-1.352185,Batubara,Sedang (5100-6100),Swasta,Dharmasraya,Sumatera Barat,Batubara Sinamar 1,0,4.467,4.52,0,8.987,1.302,0,1.302,Juta Ton,2022
,101.744558,-1.019493,Batubara,Sedang (5100-6100),Swasta,Dharmasraya,Sumatera Barat,Batubara Batu Rijal,0,0.01,0.77,0.16,0.94,0.23,0.06,0.29,Juta Ton,2022
,101.90585,-0.660114,Batubara,Sedang (5100-6100),Swasta,Indragiri Hulu,Riau,Batubara Sencano Jaya,0,26,20.72,12.93,59.65,0,3.66,3.66,Juta Ton,2022
,101.92694,-1.59608,Batubara,Sedang (5100-6100),Swasta,Bungo,Jambi,Batubara Rantau Duku,0,16.77,21.82,40.24,78.83,0,0,0,Juta Ton,2022
,102.113332,-1.969032,Batubara,Sedang (5100-6100),Swasta,Merangin,Jambi,Batubara Muaro Langeh,0,0,0,1.931,1.931,0,0,0,Juta Ton,2022
,102.188861,-2.013142,Batubara,Sedang (5100-6100),Swasta,Merangin,Jambi,Batubara Danau,0,0,0,3.32,3.32,2.361,0,2.361,Juta Ton,2022
,102.197813,-2.079167,Batubara,Sedang (5100-6100),Swasta,Merangin,Jambi,Batubara Rantau Alai,0,1.13,0,0,1.13,0,0,0,Juta Ton,2022
,102.70275,-4.049825,Batubara,Sedang (5100-6100),Swasta,Seluma,Bengkulu,Batubara Simpur Ijang,0,2,0,0,2,0,0,0,Juta Ton,2022
,102.707827,-1.493126,Batubara,Sedang (5100-6100),Swasta,Tebo,Jambi,Batubara Muara Ketalo 2,0,0.29,2.72,31.86,34.87,7.05,9.8,16.85,Juta Ton,2022
,102.892685,-2.428254,Batubara,Sedang (5100-6100),Swasta,Musi Rawas Utara,Sumatera Selatan,Batubara Mulya Jaya,0,1.5,2.01,4.98,8.49,0,0,0,Juta Ton,2022
,115.35553,-3.772363,Batubara,Sedang (5100-6100),Swasta,Tanah Bumbu,Kalimantan Selatan,Batubara Sungai Cuka 5,0,0,0,0,0,0,0,0,Juta Ton,2022
,102.926158,-2.040788,Batubara,Sedang (5100-6100),Swasta,Sarolangun,Jambi,Batubara Rangkiling 2,0,0,2.535,0.278,2.813,2.2815,0.25,2.5315,Juta Ton,2022
,103.081868,-1.99174,Batubara,Sedang (5100-6100),Swasta,Sarolangun,Jambi,Batubara Petiduran Baru,0,0.857902,2.404857,3.653864,6.916623,3.188576,2.04,5.228576,Juta Ton,2022
,103.096802,-1.609038,Batubara,Sedang (5100-6100),Swasta,Batang Hari,Jambi,Batubara Pelayangan,0,36.513,36.43,3.743,76.686,0,0,0,Juta Ton,2022
,103.173188,-3.488959,Batubara,Sedang (5100-6100),Swasta,Empat Lawang,Sumatera Selatan,Batubara Tanjung Kupang Baru,0,0,3.808,6.201,10.009,0,0,0,Juta Ton,2022
,103.214311,-3.040171,Batubara,Sedang (5100-6100),Swasta,Musi Rawas,Sumatera Selatan,Batubara Lubuk Tua 2,0,200.064757,0,0,200.064757,0,0,0,Juta Ton,2022
,103.676683,-3.733795,Batubara,Sedang (5100-6100),Swasta,Lahat,Sumatera Selatan,Batubara Gunung Kembang 2,0,2.8,0.6,2.73,6.13,0,0,0,Juta Ton,2022
,104.132477,-2.881964,Batubara,Sedang (5100-6100),Swasta,Musi Banyuasin,Sumatera Selatan,Batubara Teluk Kijing III,0,132.503,71.562,31.437,235.502,103,0,103,Juta Ton,2022
,104.329001,-2.956375,Batubara,Sedang (5100-6100),Swasta,Banyuasin,Sumatera Selatan,Batubara Tebing Abang,0,30.07,0,0,30.07,0,0,0,Juta Ton,2022
,106.125134,-6.876148,Batubara,Sedang (5100-6100),Swasta,Lebak,Banten,Batubara Karangkamulyan,0,0.117,0.117,0.117,0.351,0.117,0.117,0.234,Juta Ton,2022
,113.980793,-0.883723,Batubara,Sedang (5100-6100),Swasta,Kapuas,Kalimantan Tengah,Batubara Bulau Ngandung,0,0,0,5.5,5.5,0,0,0,Juta Ton,2022
,114.067013,-1.143328,Batubara,Sedang (5100-6100),Swasta,Kapuas,Kalimantan Tengah,Batubara Sei Ringin,0,27.2,13.39,12.05,52.64,10.71,8.51,19.22,Juta Ton,2022
,116.223703,-1.632296,Batubara,Sedang (5100-6100),Swasta,Paser,Kalimantan Timur,Batubara Kerayan Makmur,0,0,0.21,0.2,0.41,0.2,0,0.2,Juta Ton,2022
,114.454035,-1.225715,Batubara,Sedang (5100-6100),Swasta,Kapuas,Kalimantan Tengah,Batubara Batapah Berkat,0,1.07,0.713,1.14,2.923,0,0,0,Juta Ton,2022
,114.711716,-0.994765,Batubara,Sedang (5100-6100),Swasta,Barito Utara,Kalimantan Tengah,Batubara Lemo Ii B,0,0,6.402,0,6.402,0,0,0,Juta Ton,2022
,114.757946,-1.225222,Batubara,Sedang (5100-6100),Swasta,Barito Utara,Kalimantan Tengah,Batubara Paring Lahung 1,0,0,22.617,11.574,34.191,0,0,0,Juta Ton,2022
,114.762423,-1.195485,Batubara,Sedang (5100-6100),Swasta,Barito Utara,Kalimantan Tengah,Batubara Paring Lahung 2,0,30.989,13.439,10.4,54.828,0,0,0,Juta Ton,2022
,115.465735,-3.578153,Batubara,Sedang (5100-6100),Swasta,Tanah Bumbu,Kalimantan Selatan,Batubara Pratama,0,0,0,0,0,0,1.207,1.207,Juta Ton,2022
,114.972221,-1.228678,Batubara,Sedang (5100-6100),Swasta,Barito Utara,Kalimantan Tengah,Batubara Malungai 2,0,0,0,17,17,0,0,0,Juta Ton,2022
